{
"type": "FeatureCollection",
"features": [
{ "type": "Feature", "properties": { "OBJECTID": 1201, "FACILITYID": "10000919", "NAME": "JESSUP CORRECTIONAL INSTITUTION", "SECURELVL": "MAXIMUM", "CAPACITY": 1750, "POPULATION": 1619, "COUNTYFIPS": "24003" }, "geometry": { "type": "Point", "coordinates": [ -76.776644038000839, 39.144096892790685 ] } },
{ "type": "Feature", "properties": { "OBJECTID": 1, "FACILITYID": "10006326", "NAME": "GADSDEN RE-ENTRY CENTER", "SECURELVL": "MEDIUM", "CAPACITY": 432, "POPULATION": 383, "COUNTYFIPS": "12039" }, "geometry": { "type": "Point", "coordinates": [ -84.494898772047264, 30.54608079047917 ] } },
{ "type": "Feature", "properties": { "OBJECTID": 1202, "FACILITYID": "10001557", "NAME": "JESSUP PRE-RELEASE UNIT", "SECURELVL": "MINIMUM", "CAPACITY": 596, "POPULATION": 0, "COUNTYFIPS": "24003" }, "geometry": { "type": "Point", "coordinates": [ -76.776705637599292, 39.137649770886824 ] } },
{ "type": "Feature", "properties": { "OBJECTID": 2, "FACILITYID": "10006327", "NAME": "BAKER RE-ENTRY CENTER", "SECURELVL": "MEDIUM", "CAPACITY": 432, "POPULATION": 397, "COUNTYFIPS": "12003" }, "geometry": { "type": "Point", "coordinates": [ -82.318034568365974, 30.231597981925368 ] } },
{ "type": "Feature", "properties": { "OBJECTID": 1203, "FACILITYID": "10003464", "NAME": "UTAH STATE PRISON, DRAPER - NORTH COMPLEX", "SECURELVL": "MAXIMUM", "CAPACITY": 2000, "POPULATION": 994, "COUNTYFIPS": "49035" }, "geometry": { "type": "Point", "coordinates": [ -111.895247442484333, 40.497912086262723 ] } },
{ "type": "Feature", "properties": { "OBJECTID": 3, "FACILITYID": "10004255", "NAME": "SOUTH MISSISSIPPI CORRECTIONAL INSTITUTION", "SECURELVL": "MAXIMUM", "CAPACITY": 3082, "POPULATION": 2637, "COUNTYFIPS": "28041" }, "geometry": { "type": "Point", "coordinates": [ -88.606937219877864, 31.176405847122627 ] } },
{ "type": "Feature", "properties": { "OBJECTID": 1204, "FACILITYID": "10001874", "NAME": "NORTHERN REGIONAL JAIL \/ CORRECTIONAL FACILITY", "SECURELVL": "MAXIMUM", "CAPACITY": -999, "POPULATION": -999, "COUNTYFIPS": "54051" }, "geometry": { "type": "Point", "coordinates": [ -80.730260541109118, 39.909081897854065 ] } },
{ "type": "Feature", "properties": { "OBJECTID": 4, "FACILITYID": "10001816", "NAME": "EAST MISSISSIPPI CORRECTIONAL FACILITY", "SECURELVL": "MAXIMUM", "CAPACITY": 1500, "POPULATION": 1266, "COUNTYFIPS": "28075" }, "geometry": { "type": "Point", "coordinates": [ -88.798755220649824, 32.338667283805691 ] } },
{ "type": "Feature", "properties": { "OBJECTID": 1205, "FACILITYID": "10003465", "NAME": "UTAH STATE PRISON, DRAPER - SOUTH COMPLEX", "SECURELVL": "MAXIMUM", "CAPACITY": 2450, "POPULATION": 1839, "COUNTYFIPS": "49035" }, "geometry": { "type": "Point", "coordinates": [ -111.901717814465513, 40.490781135646898 ] } },
{ "type": "Feature", "properties": { "OBJECTID": 5, "FACILITYID": "10006328", "NAME": "EVERGLADES RE-ENTRY CENTER", "SECURELVL": "NOT AVAILABLE", "CAPACITY": -999, "POPULATION": 386, "COUNTYFIPS": "12086" }, "geometry": { "type": "Point", "coordinates": [ -80.494484791909926, 25.749513924325733 ] } },
{ "type": "Feature", "properties": { "OBJECTID": 6, "FACILITYID": "10002151", "NAME": "BERRYDALE FORESTRY CAMP", "SECURELVL": "MEDIUM", "CAPACITY": -999, "POPULATION": 0, "COUNTYFIPS": "12113" }, "geometry": { "type": "Point", "coordinates": [ -87.025462372878806, 30.901232919096188 ] } },
{ "type": "Feature", "properties": { "OBJECTID": 7, "FACILITYID": "10003606", "NAME": "MORTON COUNTY CORRECTIONAL CENTER", "SECURELVL": "MAXIMUM", "CAPACITY": 35, "POPULATION": -999, "COUNTYFIPS": "38059" }, "geometry": { "type": "Point", "coordinates": [ -100.892113135540612, 46.827860293226088 ] } },
{ "type": "Feature", "properties": { "OBJECTID": 8, "FACILITYID": "10004073", "NAME": "MOREHOUSE PARISH DETENTION CENTER", "SECURELVL": "NOT AVAILABLE", "CAPACITY": 272, "POPULATION": 260, "COUNTYFIPS": "22067" }, "geometry": { "type": "Point", "coordinates": [ -91.850366900405618, 32.683003671328471 ] } },
{ "type": "Feature", "properties": { "OBJECTID": 9, "FACILITYID": "10005350", "NAME": "CENTRAL JAIL COMPLEX", "SECURELVL": "MAXIMUM", "CAPACITY": 1813, "POPULATION": 1471, "COUNTYFIPS": "06059" }, "geometry": { "type": "Point", "coordinates": [ -117.878580883683455, 33.749055092142996 ] } },
{ "type": "Feature", "properties": { "OBJECTID": 10, "FACILITYID": "10002576", "NAME": "GREEN LAKE COUNTY JUSTICE CENTER", "SECURELVL": "MAXIMUM", "CAPACITY": 108, "POPULATION": -999, "COUNTYFIPS": "55047" }, "geometry": { "type": "Point", "coordinates": [ -88.938560795947183, 43.849457653644713 ] } },
{ "type": "Feature", "properties": { "OBJECTID": 11, "FACILITYID": "10005212", "NAME": "FRANKLIN WORK CAMP", "SECURELVL": "NOT AVAILABLE", "CAPACITY": -999, "POPULATION": 221, "COUNTYFIPS": "12037" }, "geometry": { "type": "Point", "coordinates": [ -84.645302110434457, 29.882341260145587 ] } },
{ "type": "Feature", "properties": { "OBJECTID": 12, "FACILITYID": "10004340", "NAME": "BINGHAM COUNTY JAIL", "SECURELVL": "NOT AVAILABLE", "CAPACITY": 102, "POPULATION": -999, "COUNTYFIPS": "16011" }, "geometry": { "type": "Point", "coordinates": [ -112.344467848592089, 43.194402759985557 ] } },
{ "type": "Feature", "properties": { "OBJECTID": 13, "FACILITYID": "10004572", "NAME": "TAYLOR WORK CAMP", "SECURELVL": "NOT AVAILABLE", "CAPACITY": -999, "POPULATION": 401, "COUNTYFIPS": "12123" }, "geometry": { "type": "Point", "coordinates": [ -83.711031805156281, 30.041336465643305 ] } },
{ "type": "Feature", "properties": { "OBJECTID": 14, "FACILITYID": "10000332", "NAME": "GRACEVILLE WORK CAMP", "SECURELVL": "NOT AVAILABLE", "CAPACITY": -999, "POPULATION": 264, "COUNTYFIPS": "12063" }, "geometry": { "type": "Point", "coordinates": [ -85.492224140936983, 30.948290864151868 ] } },
{ "type": "Feature", "properties": { "OBJECTID": 15, "FACILITYID": "10000361", "NAME": "WALTON WORK CAMP", "SECURELVL": "NOT AVAILABLE", "CAPACITY": -999, "POPULATION": 283, "COUNTYFIPS": "12131" }, "geometry": { "type": "Point", "coordinates": [ -86.107365759261938, 30.779063965798052 ] } },
{ "type": "Feature", "properties": { "OBJECTID": 16, "FACILITYID": "10000357", "NAME": "HOLMES WORK CAMP", "SECURELVL": "NOT AVAILABLE", "CAPACITY": -999, "POPULATION": 328, "COUNTYFIPS": "12059" }, "geometry": { "type": "Point", "coordinates": [ -85.669303401301462, 30.747253444231252 ] } },
{ "type": "Feature", "properties": { "OBJECTID": 17, "FACILITYID": "10000391", "NAME": "LIBERTY WORK CAMP, SOUTH UNIT", "SECURELVL": "NOT AVAILABLE", "CAPACITY": -999, "POPULATION": 407, "COUNTYFIPS": "12077" }, "geometry": { "type": "Point", "coordinates": [ -84.855881250771034, 30.463836827496696 ] } },
{ "type": "Feature", "properties": { "OBJECTID": 18, "FACILITYID": "10004558", "NAME": "OKALOOSA WORK CAMP", "SECURELVL": "NOT AVAILABLE", "CAPACITY": -999, "POPULATION": 245, "COUNTYFIPS": "12091" }, "geometry": { "type": "Point", "coordinates": [ -86.524289945432344, 30.696365651977249 ] } },
{ "type": "Feature", "properties": { "OBJECTID": 19, "FACILITYID": "10006653", "NAME": "CANYON HILLS", "SECURELVL": "JUVENILE", "CAPACITY": -999, "POPULATION": -999, "COUNTYFIPS": "46081" }, "geometry": { "type": "Point", "coordinates": [ -103.817821032820277, 44.484416707785229 ] } },
{ "type": "Feature", "properties": { "OBJECTID": 20, "FACILITYID": "10000403", "NAME": "BAKER WORK CAMP", "SECURELVL": "NOT AVAILABLE", "CAPACITY": -999, "POPULATION": 284, "COUNTYFIPS": "12003" }, "geometry": { "type": "Point", "coordinates": [ -82.380051718801866, 30.21155031185836 ] } },
{ "type": "Feature", "properties": { "OBJECTID": 21, "FACILITYID": "10004075", "NAME": "MOREHOUSE PARISH JAIL", "SECURELVL": "NOT AVAILABLE", "CAPACITY": -999, "POPULATION": -999, "COUNTYFIPS": "22067" }, "geometry": { "type": "Point", "coordinates": [ -91.912740484413618, 32.774937447253983 ] } },
{ "type": "Feature", "properties": { "OBJECTID": 22, "FACILITYID": "10004333", "NAME": "BONNER COUNTY DETENTION CENTER", "SECURELVL": "MAXIMUM", "CAPACITY": 124, "POPULATION": 106, "COUNTYFIPS": "16017" }, "geometry": { "type": "Point", "coordinates": [ -116.558296345325886, 48.308161169831791 ] } },
{ "type": "Feature", "properties": { "OBJECTID": 23, "FACILITYID": "10003525", "NAME": "SEVIER COUNTY JAIL", "SECURELVL": "NOT AVAILABLE", "CAPACITY": 214, "POPULATION": 194, "COUNTYFIPS": "47155" }, "geometry": { "type": "Point", "coordinates": [ -83.567112998614633, 35.86863956412359 ] } },
{ "type": "Feature", "properties": { "OBJECTID": 24, "FACILITYID": "10002177", "NAME": "AVON PARK CORRECTIONAL INSTITUTION", "SECURELVL": "CLOSE", "CAPACITY": 956, "POPULATION": 1027, "COUNTYFIPS": "12105" }, "geometry": { "type": "Point", "coordinates": [ -81.360339836286158, 27.661449191907717 ] } },
{ "type": "Feature", "properties": { "OBJECTID": 25, "FACILITYID": "10000382", "NAME": "MADISON WORK CAMP", "SECURELVL": "NOT AVAILABLE", "CAPACITY": -999, "POPULATION": 292, "COUNTYFIPS": "12079" }, "geometry": { "type": "Point", "coordinates": [ -83.422991615031023, 30.444461003699534 ] } },
{ "type": "Feature", "properties": { "OBJECTID": 26, "FACILITYID": "10000410", "NAME": "MAYO WORK CAMP", "SECURELVL": "NOT AVAILABLE", "CAPACITY": -999, "POPULATION": 304, "COUNTYFIPS": "12067" }, "geometry": { "type": "Point", "coordinates": [ -83.309602723762694, 30.132857307990175 ] } },
{ "type": "Feature", "properties": { "OBJECTID": 27, "FACILITYID": "10000420", "NAME": "RMC WORK CAMP", "SECURELVL": "NOT AVAILABLE", "CAPACITY": 432, "POPULATION": 431, "COUNTYFIPS": "12125" }, "geometry": { "type": "Point", "coordinates": [ -82.354799831508871, 29.993517537309597 ] } },
{ "type": "Feature", "properties": { "OBJECTID": 28, "FACILITYID": "10001804", "NAME": "MARSHALL COUNTY CORRECTIONAL FACILITY", "SECURELVL": "MEDIUM", "CAPACITY": 1076, "POPULATION": 998, "COUNTYFIPS": "28093" }, "geometry": { "type": "Point", "coordinates": [ -89.437917944237668, 34.796294720617034 ] } },
{ "type": "Feature", "properties": { "OBJECTID": 29, "FACILITYID": "10005643", "NAME": "PEMBINA COUNTY LAW ENFORCEMENT CENTER", "SECURELVL": "MAXIMUM", "CAPACITY": 18, "POPULATION": 5, "COUNTYFIPS": "38067" }, "geometry": { "type": "Point", "coordinates": [ -97.625629274046702, 48.79105364796505 ] } },
{ "type": "Feature", "properties": { "OBJECTID": 30, "FACILITYID": "10002592", "NAME": "IOWA COUNTY JAIL", "SECURELVL": "NOT AVAILABLE", "CAPACITY": -999, "POPULATION": -999, "COUNTYFIPS": "55049" }, "geometry": { "type": "Point", "coordinates": [ -90.132152391330621, 42.973089741304726 ] } },
{ "type": "Feature", "properties": { "OBJECTID": 31, "FACILITYID": "10000416", "NAME": "NEW RIVER CORRECTIONAL INSTITUTION", "SECURELVL": "CLOSE", "CAPACITY": 1050, "POPULATION": 115, "COUNTYFIPS": "12007" }, "geometry": { "type": "Point", "coordinates": [ -82.17809153767314, 30.062847903347855 ] } },
{ "type": "Feature", "properties": { "OBJECTID": 32, "FACILITYID": "10005349", "NAME": "JAMES A MUSICK FACILITY", "SECURELVL": "MINIMUM", "CAPACITY": 1322, "POPULATION": 614, "COUNTYFIPS": "06059" }, "geometry": { "type": "Point", "coordinates": [ -117.698202210776174, 33.664527633846362 ] } },
{ "type": "Feature", "properties": { "OBJECTID": 33, "FACILITYID": "10001821", "NAME": "WILKINSON COUNTY CORRECTIONAL FACILITY", "SECURELVL": "CLOSE", "CAPACITY": 900, "POPULATION": 904, "COUNTYFIPS": "28157" }, "geometry": { "type": "Point", "coordinates": [ -91.277349002488904, 31.138300737168432 ] } },
{ "type": "Feature", "properties": { "OBJECTID": 34, "FACILITYID": "10005689", "NAME": "BONNER COUNTY JUVENILE DETENTION CENTER", "SECURELVL": "JUVENILE", "CAPACITY": -999, "POPULATION": -999, "COUNTYFIPS": "16017" }, "geometry": { "type": "Point", "coordinates": [ -116.561084649308981, 48.307862621212756 ] } },
{ "type": "Feature", "properties": { "OBJECTID": 35, "FACILITYID": "10000503", "NAME": "DESOTO WORK CAMP", "SECURELVL": "NOT AVAILABLE", "CAPACITY": -999, "POPULATION": -999, "COUNTYFIPS": "12027" }, "geometry": { "type": "Point", "coordinates": [ -81.662260017084066, 27.20597048440446 ] } },
{ "type": "Feature", "properties": { "OBJECTID": 36, "FACILITYID": "10000518", "NAME": "LOXAHATCHEE ROAD PRISON", "SECURELVL": "NOT AVAILABLE", "CAPACITY": -999, "POPULATION": 92, "COUNTYFIPS": "12099" }, "geometry": { "type": "Point", "coordinates": [ -80.19387377728944, 26.683274457651208 ] } },
{ "type": "Feature", "properties": { "OBJECTID": 37, "FACILITYID": "10000457", "NAME": "SUMTER WORK CAMP", "SECURELVL": "NOT AVAILABLE", "CAPACITY": 100, "POPULATION": 287, "COUNTYFIPS": "12119" }, "geometry": { "type": "Point", "coordinates": [ -82.205475770014701, 28.613486382271056 ] } },
{ "type": "Feature", "properties": { "OBJECTID": 38, "FACILITYID": "10004244", "NAME": "WALNUT GROVE YOUTH CORRECTIONAL FACILITY", "SECURELVL": "JUVENILE", "CAPACITY": 1500, "POPULATION": 0, "COUNTYFIPS": "28079" }, "geometry": { "type": "Point", "coordinates": [ -89.44573585677594, 32.582363635371372 ] } },
{ "type": "Feature", "properties": { "OBJECTID": 39, "FACILITYID": "10000455", "NAME": "SUMTER CORRECTIONAL INSTITUTION AND BASIC TRAINING UNIT", "SECURELVL": "CLOSE", "CAPACITY": 1639, "POPULATION": 1284, "COUNTYFIPS": "12119" }, "geometry": { "type": "Point", "coordinates": [ -82.207542975638603, 28.6174838703677 ] } },
{ "type": "Feature", "properties": { "OBJECTID": 40, "FACILITYID": "10002557", "NAME": "JACKSON COUNTY JAIL", "SECURELVL": "MAXIMUM", "CAPACITY": -999, "POPULATION": 70, "COUNTYFIPS": "55053" }, "geometry": { "type": "Point", "coordinates": [ -90.85163972074821, 44.295803001636578 ] } },
{ "type": "Feature", "properties": { "OBJECTID": 41, "FACILITYID": "10005346", "NAME": "THEO LACY FACILITY", "SECURELVL": "MAXIMUM", "CAPACITY": 3442, "POPULATION": 3249, "COUNTYFIPS": "06059" }, "geometry": { "type": "Point", "coordinates": [ -117.887340865232588, 33.78189703867303 ] } },
{ "type": "Feature", "properties": { "OBJECTID": 42, "FACILITYID": "10006654", "NAME": "OUR HOME - PARKSTON", "SECURELVL": "JUVENILE", "CAPACITY": 385, "POPULATION": 34, "COUNTYFIPS": "46067" }, "geometry": { "type": "Point", "coordinates": [ -97.986644800307815, 43.397221306107561 ] } },
{ "type": "Feature", "properties": { "OBJECTID": 43, "FACILITYID": "10005654", "NAME": "RICHLAND COUNTY SHERIFF'S DEPARMENT", "SECURELVL": "MINIMUM", "CAPACITY": -999, "POPULATION": -999, "COUNTYFIPS": "38077" }, "geometry": { "type": "Point", "coordinates": [ -96.606161941853031, 46.265680164831217 ] } },
{ "type": "Feature", "properties": { "OBJECTID": 44, "FACILITYID": "10003605", "NAME": "SOUTHWEST MULTI-COUNTY CORRECTION CENTER", "SECURELVL": "MINIMUM", "CAPACITY": 118, "POPULATION": -999, "COUNTYFIPS": "38089" }, "geometry": { "type": "Point", "coordinates": [ -102.785167761771547, 46.895042486358626 ] } },
{ "type": "Feature", "properties": { "OBJECTID": 45, "FACILITYID": "10001948", "NAME": "BONNEVILLE COUNTY JAIL \/ WORK RELEASE CENTER", "SECURELVL": "NOT AVAILABLE", "CAPACITY": 340, "POPULATION": 399, "COUNTYFIPS": "16019" }, "geometry": { "type": "Point", "coordinates": [ -112.017103918608456, 43.515450548786184 ] } },
{ "type": "Feature", "properties": { "OBJECTID": 46, "FACILITYID": "10004084", "NAME": "NATCHITOCHES PARISH DETENTION CENTER", "SECURELVL": "MEDIUM", "CAPACITY": 515, "POPULATION": 502, "COUNTYFIPS": "22069" }, "geometry": { "type": "Point", "coordinates": [ -93.101094998752586, 31.732380719856476 ] } },
{ "type": "Feature", "properties": { "OBJECTID": 47, "FACILITYID": "10005347", "NAME": "ORANGE COUNTY JUVENILE HALL", "SECURELVL": "JUVENILE", "CAPACITY": 434, "POPULATION": -999, "COUNTYFIPS": "06059" }, "geometry": { "type": "Point", "coordinates": [ -117.885946794775037, 33.784981254120055 ] } },
{ "type": "Feature", "properties": { "OBJECTID": 48, "FACILITYID": "10002190", "NAME": "BROWARD JUVENILE DETENTION CENTER", "SECURELVL": "JUVENILE", "CAPACITY": 102, "POPULATION": -999, "COUNTYFIPS": "12011" }, "geometry": { "type": "Point", "coordinates": [ -80.171103596981865, 26.124366768783116 ] } },
{ "type": "Feature", "properties": { "OBJECTID": 49, "FACILITYID": "10003526", "NAME": "SEVIER COUNTY JAIL ANNEX", "SECURELVL": "MINIMUM", "CAPACITY": 356, "POPULATION": 324, "COUNTYFIPS": "47155" }, "geometry": { "type": "Point", "coordinates": [ -83.578776624353523, 35.881271682863037 ] } },
{ "type": "Feature", "properties": { "OBJECTID": 50, "FACILITYID": "10001450", "NAME": "ALACHUA REGIONAL JUVENILE DETENTION CENTER", "SECURELVL": "JUVENILE", "CAPACITY": 48, "POPULATION": 40, "COUNTYFIPS": "12001" }, "geometry": { "type": "Point", "coordinates": [ -82.271329340454656, 29.678745872363741 ] } },
{ "type": "Feature", "properties": { "OBJECTID": 51, "FACILITYID": "10005351", "NAME": "YOUTH LEADERSHIP ACADEMY", "SECURELVL": "JUVENILE", "CAPACITY": 120, "POPULATION": -999, "COUNTYFIPS": "06059" }, "geometry": { "type": "Point", "coordinates": [ -117.886415030848809, 33.784277178441741 ] } },
{ "type": "Feature", "properties": { "OBJECTID": 52, "FACILITYID": "10006655", "NAME": "OUR HOME - ADOLESCENT SEXUAL ADJUSTMENT PROGRAM", "SECURELVL": "JUVENILE", "CAPACITY": 36, "POPULATION": 36, "COUNTYFIPS": "46005" }, "geometry": { "type": "Point", "coordinates": [ -98.143901336819212, 44.341886214327609 ] } },
{ "type": "Feature", "properties": { "OBJECTID": 53, "FACILITYID": "10005059", "NAME": "BOUNDARY COUNTY JAIL", "SECURELVL": "NOT AVAILABLE", "CAPACITY": -999, "POPULATION": -999, "COUNTYFIPS": "16021" }, "geometry": { "type": "Point", "coordinates": [ -116.313429316353577, 48.695782521695868 ] } },
{ "type": "Feature", "properties": { "OBJECTID": 54, "FACILITYID": "10005076", "NAME": "BUTTE COUNTY JAIL", "SECURELVL": "NOT AVAILABLE", "CAPACITY": -999, "POPULATION": -999, "COUNTYFIPS": "16023" }, "geometry": { "type": "Point", "coordinates": [ -113.302800426539989, 43.63540704503896 ] } },
{ "type": "Feature", "properties": { "OBJECTID": 55, "FACILITYID": "10004085", "NAME": "NATCHITOCHES PARISH WORK RELEASE FACILITY", "SECURELVL": "MINIMUM", "CAPACITY": 48, "POPULATION": 13, "COUNTYFIPS": "22069" }, "geometry": { "type": "Point", "coordinates": [ -93.100622970325034, 31.731611511894769 ] } },
{ "type": "Feature", "properties": { "OBJECTID": 56, "FACILITYID": "10002593", "NAME": "JEFFERSON COUNTY JAIL", "SECURELVL": "MAXIMUM", "CAPACITY": 229, "POPULATION": 153, "COUNTYFIPS": "55055" }, "geometry": { "type": "Point", "coordinates": [ -88.806787064203661, 43.002309217676107 ] } },
{ "type": "Feature", "properties": { "OBJECTID": 57, "FACILITYID": "10001946", "NAME": "DALE G HAILE DETENTION CENTER", "SECURELVL": "NOT AVAILABLE", "CAPACITY": 361, "POPULATION": 424, "COUNTYFIPS": "16027" }, "geometry": { "type": "Point", "coordinates": [ -116.681400160375603, 43.66544801358485 ] } },
{ "type": "Feature", "properties": { "OBJECTID": 58, "FACILITYID": "10005348", "NAME": "JOPLIN YOUTH CENTER", "SECURELVL": "JUVENILE", "CAPACITY": 64, "POPULATION": -999, "COUNTYFIPS": "06059" }, "geometry": { "type": "Point", "coordinates": [ -117.572075659884518, 33.677917184996041 ] } },
{ "type": "Feature", "properties": { "OBJECTID": 59, "FACILITYID": "10000347", "NAME": "ESCAMBIA REGIONAL JUVENILE DETENTION CENTER", "SECURELVL": "JUVENILE", "CAPACITY": 50, "POPULATION": -999, "COUNTYFIPS": "12033" }, "geometry": { "type": "Point", "coordinates": [ -87.236965636468412, 30.442492827753249 ] } },
{ "type": "Feature", "properties": { "OBJECTID": 60, "FACILITYID": "10004619", "NAME": "MANATEE REGIONAL JUVENILE DETENTION CENTER", "SECURELVL": "JUVENILE", "CAPACITY": 42, "POPULATION": -999, "COUNTYFIPS": "12081" }, "geometry": { "type": "Point", "coordinates": [ -82.565849621853175, 27.482959064575805 ] } },
{ "type": "Feature", "properties": { "OBJECTID": 61, "FACILITYID": "10005345", "NAME": "YOUTH GUIDANCE CENTER", "SECURELVL": "JUVENILE", "CAPACITY": 80, "POPULATION": -999, "COUNTYFIPS": "06059" }, "geometry": { "type": "Point", "coordinates": [ -117.883166212937411, 33.781933226613674 ] } },
{ "type": "Feature", "properties": { "OBJECTID": 62, "FACILITYID": "10001809", "NAME": "CARROLL-MONTGOMERY COUNTY REGIONAL CORRECTIONAL FACILITY", "SECURELVL": "MEDIUM", "CAPACITY": 280, "POPULATION": 273, "COUNTYFIPS": "28015" }, "geometry": { "type": "Point", "coordinates": [ -89.77247002850487, 33.337546754134308 ] } },
{ "type": "Feature", "properties": { "OBJECTID": 63, "FACILITYID": "10006656", "NAME": "SUMMIT OAKS", "SECURELVL": "JUVENILE", "CAPACITY": -999, "POPULATION": -999, "COUNTYFIPS": "46099" }, "geometry": { "type": "Point", "coordinates": [ -96.719418418070887, 43.577649891295522 ] } },
{ "type": "Feature", "properties": { "OBJECTID": 64, "FACILITYID": "10004102", "NAME": "HOUSE OF DETENTION", "SECURELVL": "NOT AVAILABLE", "CAPACITY": -999, "POPULATION": 0, "COUNTYFIPS": "22071" }, "geometry": { "type": "Point", "coordinates": [ -90.093712779789499, 29.960473566433897 ] } },
{ "type": "Feature", "properties": { "OBJECTID": 65, "FACILITYID": "10003545", "NAME": "SHELBY COUNTY JAIL", "SECURELVL": "NOT AVAILABLE", "CAPACITY": -999, "POPULATION": 2359, "COUNTYFIPS": "47157" }, "geometry": { "type": "Point", "coordinates": [ -90.046639884016287, 35.148517001095229 ] } },
{ "type": "Feature", "properties": { "OBJECTID": 66, "FACILITYID": "10006827", "NAME": "LAKE REGION RESIDENTIAL RE-ENTRY CENTER", "SECURELVL": "NOT AVAILABLE", "CAPACITY": 28, "POPULATION": 23, "COUNTYFIPS": "38071" }, "geometry": { "type": "Point", "coordinates": [ -98.867464162404616, 48.108069846751356 ] } },
{ "type": "Feature", "properties": { "OBJECTID": 67, "FACILITYID": "10006102", "NAME": "ADAMS COUNTY JAIL \/ SHERIFF", "SECURELVL": "NOT AVAILABLE", "CAPACITY": 37, "POPULATION": 29, "COUNTYFIPS": "31001" }, "geometry": { "type": "Point", "coordinates": [ -98.388112411635291, 40.587517979912185 ] } },
{ "type": "Feature", "properties": { "OBJECTID": 68, "FACILITYID": "10000544", "NAME": "MIAMI DADE REGIONAL JUVENILE DETENTION CENTER", "SECURELVL": "JUVENILE", "CAPACITY": 126, "POPULATION": -999, "COUNTYFIPS": "12086" }, "geometry": { "type": "Point", "coordinates": [ -80.242467577829359, 25.806336128651317 ] } },
{ "type": "Feature", "properties": { "OBJECTID": 69, "FACILITYID": "10001179", "NAME": "SOUTHWEST IDAHO JUVENILE DETENTION CENTER", "SECURELVL": "JUVENILE", "CAPACITY": 90, "POPULATION": 45, "COUNTYFIPS": "16027" }, "geometry": { "type": "Point", "coordinates": [ -116.679813566513275, 43.664926574397171 ] } },
{ "type": "Feature", "properties": { "OBJECTID": 70, "FACILITYID": "10005073", "NAME": "FREMONT COUNTY JAIL", "SECURELVL": "NOT AVAILABLE", "CAPACITY": -999, "POPULATION": -999, "COUNTYFIPS": "16043" }, "geometry": { "type": "Point", "coordinates": [ -111.684852444113758, 43.968054588615082 ] } },
{ "type": "Feature", "properties": { "OBJECTID": 71, "FACILITYID": "10005063", "NAME": "CLEARWATER COUNTY JAIL", "SECURELVL": "NOT AVAILABLE", "CAPACITY": -999, "POPULATION": -999, "COUNTYFIPS": "16035" }, "geometry": { "type": "Point", "coordinates": [ -116.255058098590624, 46.480000521869357 ] } },
{ "type": "Feature", "properties": { "OBJECTID": 72, "FACILITYID": "10005088", "NAME": "MINI-CASSIA CRIMINAL JUSTICE CENTER", "SECURELVL": "NOT AVAILABLE", "CAPACITY": -999, "POPULATION": 176, "COUNTYFIPS": "16031" }, "geometry": { "type": "Point", "coordinates": [ -113.791176914597713, 42.535086723639353 ] } },
{ "type": "Feature", "properties": { "OBJECTID": 73, "FACILITYID": "10000464", "NAME": "ORANGE REGIONAL JUVENILE DETENTION CENTER", "SECURELVL": "JUVENILE", "CAPACITY": 124, "POPULATION": 20, "COUNTYFIPS": "12095" }, "geometry": { "type": "Point", "coordinates": [ -81.353129831283667, 28.510017915191987 ] } },
{ "type": "Feature", "properties": { "OBJECTID": 74, "FACILITYID": "10005086", "NAME": "CARIBOU COUNTY JAIL", "SECURELVL": "MAXIMUM", "CAPACITY": 49, "POPULATION": 25, "COUNTYFIPS": "16029" }, "geometry": { "type": "Point", "coordinates": [ -111.589885125126216, 42.655281758296532 ] } },
{ "type": "Feature", "properties": { "OBJECTID": 75, "FACILITYID": "10005074", "NAME": "CLARK COUNTY JAIL", "SECURELVL": "NOT AVAILABLE", "CAPACITY": -999, "POPULATION": -999, "COUNTYFIPS": "16033" }, "geometry": { "type": "Point", "coordinates": [ -112.232984953362688, 44.176668003209954 ] } },
{ "type": "Feature", "properties": { "OBJECTID": 76, "FACILITYID": "10002563", "NAME": "JUNEAU COUNTY JAIL", "SECURELVL": "NOT AVAILABLE", "CAPACITY": 157, "POPULATION": 36, "COUNTYFIPS": "55057" }, "geometry": { "type": "Point", "coordinates": [ -90.075874761123927, 43.795473032233623 ] } },
{ "type": "Feature", "properties": { "OBJECTID": 77, "FACILITYID": "10005078", "NAME": "ELMORE COUNTY DETENTION CENTER", "SECURELVL": "MAXIMUM", "CAPACITY": 127, "POPULATION": 121, "COUNTYFIPS": "16039" }, "geometry": { "type": "Point", "coordinates": [ -115.673161248187483, 43.136715256520354 ] } },
{ "type": "Feature", "properties": { "OBJECTID": 78, "FACILITYID": "10006657", "NAME": "BENCHMARK BEHAVIORAL HEALTH SYSTEMS", "SECURELVL": "JUVENILE", "CAPACITY": 84, "POPULATION": -999, "COUNTYFIPS": "49011" }, "geometry": { "type": "Point", "coordinates": [ -111.895558252915677, 40.877963548843901 ] } },
{ "type": "Feature", "properties": { "OBJECTID": 79, "FACILITYID": "10005071", "NAME": "CUSTER COUNTY JAIL", "SECURELVL": "NOT AVAILABLE", "CAPACITY": -999, "POPULATION": -999, "COUNTYFIPS": "16037" }, "geometry": { "type": "Point", "coordinates": [ -114.230846046443503, 44.504504044370748 ] } },
{ "type": "Feature", "properties": { "OBJECTID": 80, "FACILITYID": "10005064", "NAME": "IDAHO COUNTY JAIL", "SECURELVL": "NOT AVAILABLE", "CAPACITY": 11, "POPULATION": 18, "COUNTYFIPS": "16049" }, "geometry": { "type": "Point", "coordinates": [ -116.123336659046444, 45.926285669307006 ] } },
{ "type": "Feature", "properties": { "OBJECTID": 81, "FACILITYID": "10005087", "NAME": "JEROME COUNTY JAIL", "SECURELVL": "NOT AVAILABLE", "CAPACITY": -999, "POPULATION": -999, "COUNTYFIPS": "16053" }, "geometry": { "type": "Point", "coordinates": [ -114.502859263030842, 42.701560378407137 ] } },
{ "type": "Feature", "properties": { "OBJECTID": 82, "FACILITYID": "10000471", "NAME": "PASCO JUVENILE DETENTION CENTER", "SECURELVL": "JUVENILE", "CAPACITY": 36, "POPULATION": 49, "COUNTYFIPS": "12101" }, "geometry": { "type": "Point", "coordinates": [ -82.343579114634508, 28.323194301906224 ] } },
{ "type": "Feature", "properties": { "OBJECTID": 83, "FACILITYID": "10006706", "NAME": "SOUTH PLACER JAIL", "SECURELVL": "NOT AVAILABLE", "CAPACITY": -999, "POPULATION": 389, "COUNTYFIPS": "06061" }, "geometry": { "type": "Point", "coordinates": [ -121.301578458661297, 38.808412820191911 ] } },
{ "type": "Feature", "properties": { "OBJECTID": 84, "FACILITYID": "10004334", "NAME": "KOOTENAI COUNTY JAIL", "SECURELVL": "NOT AVAILABLE", "CAPACITY": 325, "POPULATION": 461, "COUNTYFIPS": "16055" }, "geometry": { "type": "Point", "coordinates": [ -116.785222170647543, 47.721015356446216 ] } },
{ "type": "Feature", "properties": { "OBJECTID": 85, "FACILITYID": "10004101", "NAME": "ORLEANS PARISH PRISON", "SECURELVL": "NOT AVAILABLE", "CAPACITY": 3377, "POPULATION": 0, "COUNTYFIPS": "22071" }, "geometry": { "type": "Point", "coordinates": [ -90.092101330338139, 29.961605390782051 ] } },
{ "type": "Feature", "properties": { "OBJECTID": 86, "FACILITYID": "10001814", "NAME": "LEAKE COUNTY CORRECTIONAL FACILITY", "SECURELVL": "MEDIUM", "CAPACITY": 280, "POPULATION": 229, "COUNTYFIPS": "28079" }, "geometry": { "type": "Point", "coordinates": [ -89.523484825357812, 32.733333988557263 ] } },
{ "type": "Feature", "properties": { "OBJECTID": 87, "FACILITYID": "10006073", "NAME": "ANTELOPE COUNTY JAIL \/ SHERIFF", "SECURELVL": "NOT AVAILABLE", "CAPACITY": 31, "POPULATION": 7, "COUNTYFIPS": "31003" }, "geometry": { "type": "Point", "coordinates": [ -98.029193775145785, 42.13629462509931 ] } },
{ "type": "Feature", "properties": { "OBJECTID": 88, "FACILITYID": "10004107", "NAME": "CONCHETTA", "SECURELVL": "NOT AVAILABLE", "CAPACITY": -999, "POPULATION": 0, "COUNTYFIPS": "22071" }, "geometry": { "type": "Point", "coordinates": [ -90.089773824246677, 29.960906397074069 ] } },
{ "type": "Feature", "properties": { "OBJECTID": 89, "FACILITYID": "10006658", "NAME": "CLARINDA ACADEMY", "SECURELVL": "JUVENILE", "CAPACITY": 265, "POPULATION": 190, "COUNTYFIPS": "19145" }, "geometry": { "type": "Point", "coordinates": [ -95.038295181711192, 40.75801741928008 ] } },
{ "type": "Feature", "properties": { "OBJECTID": 90, "FACILITYID": "10006079", "NAME": "BOONE COUNTY JAIL \/ SHERIFF", "SECURELVL": "NOT AVAILABLE", "CAPACITY": 8, "POPULATION": 1, "COUNTYFIPS": "31011" }, "geometry": { "type": "Point", "coordinates": [ -98.002203466812674, 41.691432716717443 ] } },
{ "type": "Feature", "properties": { "OBJECTID": 91, "FACILITYID": "10003544", "NAME": "SHELBY COUNTY JAIL WOMEN'S FACILITY", "SECURELVL": "NOT AVAILABLE", "CAPACITY": -999, "POPULATION": 228, "COUNTYFIPS": "47157" }, "geometry": { "type": "Point", "coordinates": [ -89.856487686922506, 35.149272163938107 ] } },
{ "type": "Feature", "properties": { "OBJECTID": 92, "FACILITYID": "10005269", "NAME": "PLUMAS COUNTY CORRECTIONAL FACILITY", "SECURELVL": "NOT AVAILABLE", "CAPACITY": -999, "POPULATION": 51, "COUNTYFIPS": "06063" }, "geometry": { "type": "Point", "coordinates": [ -120.90782411482148, 39.933423381350828 ] } },
{ "type": "Feature", "properties": { "OBJECTID": 93, "FACILITYID": "10006729", "NAME": "PIERCE CLEGG WORK RELEASE CENTER", "SECURELVL": "NOT AVAILABLE", "CAPACITY": -999, "POPULATION": -999, "COUNTYFIPS": "16055" }, "geometry": { "type": "Point", "coordinates": [ -116.782417110318363, 47.722114224057599 ] } },
{ "type": "Feature", "properties": { "OBJECTID": 94, "FACILITYID": "10006071", "NAME": "BOX BUTTE COUNTY JAIL", "SECURELVL": "NOT AVAILABLE", "CAPACITY": 32, "POPULATION": 14, "COUNTYFIPS": "31013" }, "geometry": { "type": "Point", "coordinates": [ -102.869837911581627, 42.09974430371426 ] } },
{ "type": "Feature", "properties": { "OBJECTID": 95, "FACILITYID": "10005344", "NAME": "SOUTHWEST JUVENILE HALL", "SECURELVL": "JUVENILE", "CAPACITY": 99, "POPULATION": -999, "COUNTYFIPS": "06065" }, "geometry": { "type": "Point", "coordinates": [ -117.119826025056653, 33.580731820437158 ] } },
{ "type": "Feature", "properties": { "OBJECTID": 96, "FACILITYID": "10000862", "NAME": "RIVERSIDE COUNTY INDIO JAIL", "SECURELVL": "NOT AVAILABLE", "CAPACITY": -999, "POPULATION": 364, "COUNTYFIPS": "06065" }, "geometry": { "type": "Point", "coordinates": [ -116.22151682272623, 33.714129488410386 ] } },
{ "type": "Feature", "properties": { "OBJECTID": 97, "FACILITYID": "10001536", "NAME": "ROBERT PRESLEY DETENTION CENTER", "SECURELVL": "NOT AVAILABLE", "CAPACITY": -999, "POPULATION": 711, "COUNTYFIPS": "06065" }, "geometry": { "type": "Point", "coordinates": [ -117.374295200709838, 33.978787698573946 ] } },
{ "type": "Feature", "properties": { "OBJECTID": 98, "FACILITYID": "10006659", "NAME": "COASTAL HARBOR TREATMENT CENTER", "SECURELVL": "JUVENILE", "CAPACITY": -999, "POPULATION": -999, "COUNTYFIPS": "13051" }, "geometry": { "type": "Point", "coordinates": [ -81.09557807000941, 32.012523217897979 ] } },
{ "type": "Feature", "properties": { "OBJECTID": 99, "FACILITYID": "10000860", "NAME": "RIVERSIDE COUNTY JUVENILE HALL", "SECURELVL": "JUVENILE", "CAPACITY": 187, "POPULATION": -999, "COUNTYFIPS": "06065" }, "geometry": { "type": "Point", "coordinates": [ -117.452582763293975, 33.920153441994984 ] } },
{ "type": "Feature", "properties": { "OBJECTID": 100, "FACILITYID": "10006084", "NAME": "BUTLER COUNTY JAIL", "SECURELVL": "NOT AVAILABLE", "CAPACITY": 28, "POPULATION": 18, "COUNTYFIPS": "31023" }, "geometry": { "type": "Point", "coordinates": [ -97.129273926815088, 41.25347245824868 ] } },
{ "type": "Feature", "properties": { "OBJECTID": 101, "FACILITYID": "10000778", "NAME": "SACRAMENTO COUNTY MAIN JAIL", "SECURELVL": "NOT AVAILABLE", "CAPACITY": -999, "POPULATION": 1917, "COUNTYFIPS": "06067" }, "geometry": { "type": "Point", "coordinates": [ -121.49749030705037, 38.582987367138799 ] } },
{ "type": "Feature", "properties": { "OBJECTID": 102, "FACILITYID": "10002574", "NAME": "LA CROSSE COUNTY JAIL", "SECURELVL": "NOT AVAILABLE", "CAPACITY": 323, "POPULATION": 189, "COUNTYFIPS": "55063" }, "geometry": { "type": "Point", "coordinates": [ -91.250315715799815, 43.814945595733377 ] } },
{ "type": "Feature", "properties": { "OBJECTID": 103, "FACILITYID": "10005067", "NAME": "LEMHI COUNTY JAIL \/ JUVENILE DETENTION CENTER", "SECURELVL": "NOT AVAILABLE", "CAPACITY": 26, "POPULATION": -999, "COUNTYFIPS": "16059" }, "geometry": { "type": "Point", "coordinates": [ -113.902323865394905, 45.179279637392369 ] } },
{ "type": "Feature", "properties": { "OBJECTID": 104, "FACILITYID": "10002542", "NAME": "MARATHON COUNTY JAIL \/ SHERIFF", "SECURELVL": "NOT AVAILABLE", "CAPACITY": 279, "POPULATION": 330, "COUNTYFIPS": "55073" }, "geometry": { "type": "Point", "coordinates": [ -89.624875966632672, 44.957976244046762 ] } },
{ "type": "Feature", "properties": { "OBJECTID": 105, "FACILITYID": "10006066", "NAME": "CEDAR COUNTY JAIL", "SECURELVL": "NOT AVAILABLE", "CAPACITY": 20, "POPULATION": 4, "COUNTYFIPS": "31027" }, "geometry": { "type": "Point", "coordinates": [ -97.264205941234792, 42.620272478126587 ] } },
{ "type": "Feature", "properties": { "OBJECTID": 106, "FACILITYID": "10000779", "NAME": "RIO COSUMNES CORRECTIONAL CENTER", "SECURELVL": "MEDIUM", "CAPACITY": -999, "POPULATION": 1504, "COUNTYFIPS": "06067" }, "geometry": { "type": "Point", "coordinates": [ -121.423325069656386, 38.306399315131607 ] } },
{ "type": "Feature", "properties": { "OBJECTID": 107, "FACILITYID": "10003543", "NAME": "SHELBY ADULT OFFENDER CENTER", "SECURELVL": "MEDIUM", "CAPACITY": 768, "POPULATION": -999, "COUNTYFIPS": "47157" }, "geometry": { "type": "Point", "coordinates": [ -89.863423801651123, 35.151214751290155 ] } },
{ "type": "Feature", "properties": { "OBJECTID": 108, "FACILITYID": "10006333", "NAME": "ALACHUA ACADEMY", "SECURELVL": "JUVENILE", "CAPACITY": 28, "POPULATION": 14, "COUNTYFIPS": "12001" }, "geometry": { "type": "Point", "coordinates": [ -82.271800565814374, 29.680286056222059 ] } },
{ "type": "Feature", "properties": { "OBJECTID": 109, "FACILITYID": "10003948", "NAME": "BAY REGIONAL JUVENILE DETENTION CENTER", "SECURELVL": "JUVENILE", "CAPACITY": 32, "POPULATION": 27, "COUNTYFIPS": "12005" }, "geometry": { "type": "Point", "coordinates": [ -85.654632277162364, 30.167041360719256 ] } },
{ "type": "Feature", "properties": { "OBJECTID": 110, "FACILITYID": "10002164", "NAME": "BREVARD GROUP TREATMENT HOME", "SECURELVL": "JUVENILE", "CAPACITY": 30, "POPULATION": 28, "COUNTYFIPS": "12009" }, "geometry": { "type": "Point", "coordinates": [ -80.784987921214835, 28.417722809255448 ] } },
{ "type": "Feature", "properties": { "OBJECTID": 111, "FACILITYID": "10002165", "NAME": "BREVARD JUVENILE DETENTION CENTER", "SECURELVL": "JUVENILE", "CAPACITY": 40, "POPULATION": 37, "COUNTYFIPS": "12009" }, "geometry": { "type": "Point", "coordinates": [ -80.784292843578029, 28.449645927516258 ] } },
{ "type": "Feature", "properties": { "OBJECTID": 112, "FACILITYID": "10006336", "NAME": "BROWARD YOUTH TREATMENT CENTER", "SECURELVL": "JUVENILE", "CAPACITY": 28, "POPULATION": 28, "COUNTYFIPS": "12011" }, "geometry": { "type": "Point", "coordinates": [ -80.252188595864169, 25.998967807689993 ] } },
{ "type": "Feature", "properties": { "OBJECTID": 113, "FACILITYID": "10005080", "NAME": "MADISON COUNTY JAIL", "SECURELVL": "NOT AVAILABLE", "CAPACITY": -999, "POPULATION": -999, "COUNTYFIPS": "16065" }, "geometry": { "type": "Point", "coordinates": [ -111.779257992872971, 43.826951440917824 ] } },
{ "type": "Feature", "properties": { "OBJECTID": 114, "FACILITYID": "10005081", "NAME": "MADISON COUNTY WOMEN'S CORRECTIONAL FACILITY", "SECURELVL": "NOT AVAILABLE", "CAPACITY": -999, "POPULATION": -999, "COUNTYFIPS": "16065" }, "geometry": { "type": "Point", "coordinates": [ -111.778766718461796, 43.8264953885582 ] } },
{ "type": "Feature", "properties": { "OBJECTID": 115, "FACILITYID": "10006101", "NAME": "CHASE COUNTY JAIL", "SECURELVL": "NOT AVAILABLE", "CAPACITY": 6, "POPULATION": 2, "COUNTYFIPS": "31029" }, "geometry": { "type": "Point", "coordinates": [ -101.643955136415045, 40.520441158589236 ] } },
{ "type": "Feature", "properties": { "OBJECTID": 116, "FACILITYID": "10000531", "NAME": "COLLIER JUVENILE DETENTION CENTER", "SECURELVL": "JUVENILE", "CAPACITY": 45, "POPULATION": 3, "COUNTYFIPS": "12021" }, "geometry": { "type": "Point", "coordinates": [ -81.763818318646017, 26.130257770290289 ] } },
{ "type": "Feature", "properties": { "OBJECTID": 117, "FACILITYID": "10004571", "NAME": "DUVAL REGIONAL JUVENILE DETENTION CENTER", "SECURELVL": "JUVENILE", "CAPACITY": 100, "POPULATION": 102, "COUNTYFIPS": "12031" }, "geometry": { "type": "Point", "coordinates": [ -81.638264537394477, 30.346337258901389 ] } },
{ "type": "Feature", "properties": { "OBJECTID": 801, "FACILITYID": "10000668", "NAME": "MACON COUNTY JAIL", "SECURELVL": "MAXIMUM", "CAPACITY": 425, "POPULATION": 329, "COUNTYFIPS": "17115" }, "geometry": { "type": "Point", "coordinates": [ -88.953590251331477, 39.839185051824025 ] } },
{ "type": "Feature", "properties": { "OBJECTID": 118, "FACILITYID": "10000435", "NAME": "MARION REGIONAL JUVENILE DETENTION CENTER", "SECURELVL": "JUVENILE", "CAPACITY": 42, "POPULATION": 29, "COUNTYFIPS": "12083" }, "geometry": { "type": "Point", "coordinates": [ -82.174454852849422, 29.196371772393647 ] } },
{ "type": "Feature", "properties": { "OBJECTID": 119, "FACILITYID": "10004657", "NAME": "MONROE JUVENILE DETENTION CENTER", "SECURELVL": "JUVENILE", "CAPACITY": 10, "POPULATION": 2, "COUNTYFIPS": "12087" }, "geometry": { "type": "Point", "coordinates": [ -81.750795729419252, 24.577022058320249 ] } },
{ "type": "Feature", "properties": { "OBJECTID": 120, "FACILITYID": "10001460", "NAME": "PALM BEACH JUVENILE DETENTION CENTER", "SECURELVL": "JUVENILE", "CAPACITY": 65, "POPULATION": 51, "COUNTYFIPS": "12099" }, "geometry": { "type": "Point", "coordinates": [ -80.067675304677508, 26.75116731459056 ] } },
{ "type": "Feature", "properties": { "OBJECTID": 121, "FACILITYID": "10000478", "NAME": "PINELLAS JUVENILE DETENTION CENTER", "SECURELVL": "JUVENILE", "CAPACITY": 96, "POPULATION": 69, "COUNTYFIPS": "12103" }, "geometry": { "type": "Point", "coordinates": [ -82.705088487941978, 27.89997181413646 ] } },
{ "type": "Feature", "properties": { "OBJECTID": 122, "FACILITYID": "10004628", "NAME": "ST. LUCIE REGIONAL JUVENILE DETENTION CENTER", "SECURELVL": "JUVENILE", "CAPACITY": 49, "POPULATION": 44, "COUNTYFIPS": "12111" }, "geometry": { "type": "Point", "coordinates": [ -80.337159418670282, 27.39489936450396 ] } },
{ "type": "Feature", "properties": { "OBJECTID": 123, "FACILITYID": "10000528", "NAME": "SW FLORIDA REGIONAL JUVENILE DETENTION CENTER", "SECURELVL": "JUVENILE", "CAPACITY": 60, "POPULATION": 54, "COUNTYFIPS": "12071" }, "geometry": { "type": "Point", "coordinates": [ -81.808213036713269, 26.633170305264848 ] } },
{ "type": "Feature", "properties": { "OBJECTID": 124, "FACILITYID": "10000448", "NAME": "VOLUSIA REGIONAL JUVENILE DETENTION CENTER", "SECURELVL": "JUVENILE", "CAPACITY": 64, "POPULATION": 49, "COUNTYFIPS": "12127" }, "geometry": { "type": "Point", "coordinates": [ -81.145178604403554, 29.136531088312339 ] } },
{ "type": "Feature", "properties": { "OBJECTID": 125, "FACILITYID": "10006660", "NAME": "COPPER HILLS YOUTH CENTER", "SECURELVL": "JUVENILE", "CAPACITY": -999, "POPULATION": -999, "COUNTYFIPS": "49035" }, "geometry": { "type": "Point", "coordinates": [ -112.032238663899307, 40.588446735122467 ] } },
{ "type": "Feature", "properties": { "OBJECTID": 126, "FACILITYID": "10000472", "NAME": "CENTRAL PASCO GIRLS ACADEMY", "SECURELVL": "JUVENILE", "CAPACITY": 32, "POPULATION": 27, "COUNTYFIPS": "12101" }, "geometry": { "type": "Point", "coordinates": [ -82.478240351605947, 28.201461057462222 ] } },
{ "type": "Feature", "properties": { "OBJECTID": 127, "FACILITYID": "10004103", "NAME": "TEMPLEMAN PHASE V", "SECURELVL": "NOT AVAILABLE", "CAPACITY": -999, "POPULATION": 0, "COUNTYFIPS": "22071" }, "geometry": { "type": "Point", "coordinates": [ -90.097666652306827, 29.961498661699046 ] } },
{ "type": "Feature", "properties": { "OBJECTID": 128, "FACILITYID": "10004600", "NAME": "CHALLENGE YOUTH ACADEMY", "SECURELVL": "JUVENILE", "CAPACITY": 60, "POPULATION": 58, "COUNTYFIPS": "12053" }, "geometry": { "type": "Point", "coordinates": [ -82.375506811633301, 28.436793108984411 ] } },
{ "type": "Feature", "properties": { "OBJECTID": 129, "FACILITYID": "10001457", "NAME": "CHARLES BRITT ACADEMY", "SECURELVL": "JUVENILE", "CAPACITY": 28, "POPULATION": 28, "COUNTYFIPS": "12103" }, "geometry": { "type": "Point", "coordinates": [ -82.674060336142276, 27.745193781235528 ] } },
{ "type": "Feature", "properties": { "OBJECTID": 130, "FACILITYID": "10006775", "NAME": "ORLEANS JUSTICE CENTER", "SECURELVL": "NOT AVAILABLE", "CAPACITY": 1938, "POPULATION": 1461, "COUNTYFIPS": "22071" }, "geometry": { "type": "Point", "coordinates": [ -90.095255424252258, 29.96010337347812 ] } },
{ "type": "Feature", "properties": { "OBJECTID": 131, "FACILITYID": "10004615", "NAME": "COLUMBUS JUVENILE RESIDENTIAL FACILITY", "SECURELVL": "JUVENILE", "CAPACITY": 50, "POPULATION": 40, "COUNTYFIPS": "12057" }, "geometry": { "type": "Point", "coordinates": [ -82.341953752639569, 27.966708510026979 ] } },
{ "type": "Feature", "properties": { "OBJECTID": 401, "FACILITYID": "10001978", "NAME": "BETO PRISON", "SECURELVL": "MAXIMUM", "CAPACITY": 3471, "POPULATION": 3357, "COUNTYFIPS": "48001" }, "geometry": { "type": "Point", "coordinates": [ -95.822807580853663, 31.754698344662398 ] } },
{ "type": "Feature", "properties": { "OBJECTID": 132, "FACILITYID": "10005532", "NAME": "ALCORN COUNTY REGIONAL CORRECTIONAL FACILITY", "SECURELVL": "MEDIUM", "CAPACITY": 300, "POPULATION": 285, "COUNTYFIPS": "28003" }, "geometry": { "type": "Point", "coordinates": [ -88.552374032665867, 34.909864145550884 ] } },
{ "type": "Feature", "properties": { "OBJECTID": 133, "FACILITYID": "10004234", "NAME": "BOLIVAR COUNTY REGIONAL CORRECTIONAL FACILITY", "SECURELVL": "MEDIUM", "CAPACITY": 369, "POPULATION": 297, "COUNTYFIPS": "28011" }, "geometry": { "type": "Point", "coordinates": [ -90.804623618509424, 33.768747145214348 ] } },
{ "type": "Feature", "properties": { "OBJECTID": 134, "FACILITYID": "10000353", "NAME": "OKALOOSA YOUTH ACADEMY AND CRESTVIEW SEX OFFENDER PROGRAM", "SECURELVL": "JUVENILE", "CAPACITY": 75, "POPULATION": 63, "COUNTYFIPS": "12091" }, "geometry": { "type": "Point", "coordinates": [ -86.521081388773794, 30.700798096265029 ] } },
{ "type": "Feature", "properties": { "OBJECTID": 135, "FACILITYID": "10001822", "NAME": "GEORGE-GREENE COUNTY REG CORRECTIONAL FACILITY", "SECURELVL": "MEDIUM", "CAPACITY": 280, "POPULATION": 339, "COUNTYFIPS": "28039" }, "geometry": { "type": "Point", "coordinates": [ -88.586910251521786, 30.93037592373604 ] } },
{ "type": "Feature", "properties": { "OBJECTID": 136, "FACILITYID": "10001810", "NAME": "HOLMES-HUMPHREYS COUNTY REG CORRECTIONAL FACILITY", "SECURELVL": "MEDIUM", "CAPACITY": 280, "POPULATION": 256, "COUNTYFIPS": "28051" }, "geometry": { "type": "Point", "coordinates": [ -90.025007125456654, 33.105918447197269 ] } },
{ "type": "Feature", "properties": { "OBJECTID": 137, "FACILITYID": "10004242", "NAME": "ISSAQUENA COUNTY CORRECTIONAL FACILITY", "SECURELVL": "MEDIUM", "CAPACITY": 274, "POPULATION": 274, "COUNTYFIPS": "28055" }, "geometry": { "type": "Point", "coordinates": [ -91.048580676577743, 32.900181396776347 ] } },
{ "type": "Feature", "properties": { "OBJECTID": 138, "FACILITYID": "10001819", "NAME": "JEFFERSON-FRANKLIN COUNTY REG CORRECTIONAL FACILITY", "SECURELVL": "MEDIUM", "CAPACITY": 280, "POPULATION": 273, "COUNTYFIPS": "28063" }, "geometry": { "type": "Point", "coordinates": [ -91.074792958643471, 31.700705665002541 ] } },
{ "type": "Feature", "properties": { "OBJECTID": 139, "FACILITYID": "10002646", "NAME": "KEMPER-NESHOBA COUNTY REGIONAL CORRECTIONAL FACILITY", "SECURELVL": "MEDIUM", "CAPACITY": 467, "POPULATION": 345, "COUNTYFIPS": "28069" }, "geometry": { "type": "Point", "coordinates": [ -88.68436064297984, 32.77048177899686 ] } },
{ "type": "Feature", "properties": { "OBJECTID": 140, "FACILITYID": "10004591", "NAME": "CYPRESS CREEK JUVENILE OFFENDER CC", "SECURELVL": "JUVENILE", "CAPACITY": 96, "POPULATION": 71, "COUNTYFIPS": "12017" }, "geometry": { "type": "Point", "coordinates": [ -82.481201230950177, 28.845236856660765 ] } },
{ "type": "Feature", "properties": { "OBJECTID": 141, "FACILITYID": "10004258", "NAME": "MARION-WALTHALL COUNTY REG CORRECTIONAL FACILITY", "SECURELVL": "MEDIUM", "CAPACITY": 280, "POPULATION": 277, "COUNTYFIPS": "28091" }, "geometry": { "type": "Point", "coordinates": [ -89.836849825991337, 31.249489046580305 ] } },
{ "type": "Feature", "properties": { "OBJECTID": 142, "FACILITYID": "10004261", "NAME": "STONE COUNTY CORRECTIONAL FACILITY", "SECURELVL": "MEDIUM", "CAPACITY": 326, "POPULATION": 325, "COUNTYFIPS": "28131" }, "geometry": { "type": "Point", "coordinates": [ -89.134562988314627, 30.836192815273407 ] } },
{ "type": "Feature", "properties": { "OBJECTID": 143, "FACILITYID": "10004655", "NAME": "DADE JUVENILE RESIDENTIAL FACILITY AND DADE YOUTH ACADEMY", "SECURELVL": "JUVENILE", "CAPACITY": 56, "POPULATION": 50, "COUNTYFIPS": "12086" }, "geometry": { "type": "Point", "coordinates": [ -80.481116228432441, 25.37225251881096 ] } },
{ "type": "Feature", "properties": { "OBJECTID": 144, "FACILITYID": "10000449", "NAME": "DAYTONA JUVENILE RESIDENTIAL FACILITY", "SECURELVL": "JUVENILE", "CAPACITY": 30, "POPULATION": 48, "COUNTYFIPS": "12127" }, "geometry": { "type": "Point", "coordinates": [ -81.143105143813699, 29.136882700368805 ] } },
{ "type": "Feature", "properties": { "OBJECTID": 145, "FACILITYID": "10004240", "NAME": "WINSTON-CHOCTAW COUNTY REG CORRECTIONAL FACILITY", "SECURELVL": "MEDIUM", "CAPACITY": 280, "POPULATION": 270, "COUNTYFIPS": "28159" }, "geometry": { "type": "Point", "coordinates": [ -89.05528311040203, 33.169541616286885 ] } },
{ "type": "Feature", "properties": { "OBJECTID": 146, "FACILITYID": "10004554", "NAME": "DOVE ACADEMY", "SECURELVL": "JUVENILE", "CAPACITY": 38, "POPULATION": -999, "COUNTYFIPS": "12063" }, "geometry": { "type": "Point", "coordinates": [ -85.493944124416117, 30.951487460316688 ] } },
{ "type": "Feature", "properties": { "OBJECTID": 147, "FACILITYID": "10006215", "NAME": "YAZOO COUNTY REGIONAL CORRECTIONAL FACILITY", "SECURELVL": "MEDIUM", "CAPACITY": 300, "POPULATION": 295, "COUNTYFIPS": "28163" }, "geometry": { "type": "Point", "coordinates": [ -90.43082614110979, 32.84814502369025 ] } },
{ "type": "Feature", "properties": { "OBJECTID": 148, "FACILITYID": "10005533", "NAME": "ALCORN COUNTY COMMUNITY WORK CENTER", "SECURELVL": "NOT AVAILABLE", "CAPACITY": 92, "POPULATION": 0, "COUNTYFIPS": "28003" }, "geometry": { "type": "Point", "coordinates": [ -88.556441196325892, 34.908463710305888 ] } },
{ "type": "Feature", "properties": { "OBJECTID": 149, "FACILITYID": "10005083", "NAME": "MINI-CASSIA JUVENILE DETENTION CENTER", "SECURELVL": "JUVENILE", "CAPACITY": 16, "POPULATION": -999, "COUNTYFIPS": "16067" }, "geometry": { "type": "Point", "coordinates": [ -113.677566376032942, 42.619092389266562 ] } },
{ "type": "Feature", "properties": { "OBJECTID": 150, "FACILITYID": "10006214", "NAME": "WASHINGTON COUNTY REGIONAL CORRECTIONAL FACILITY", "SECURELVL": "NOT AVAILABLE", "CAPACITY": 300, "POPULATION": 235, "COUNTYFIPS": "28151" }, "geometry": { "type": "Point", "coordinates": [ -91.136015149472627, 33.334141165016327 ] } },
{ "type": "Feature", "properties": { "OBJECTID": 151, "FACILITYID": "10006337", "NAME": "DUVAL ACADEMY", "SECURELVL": "JUVENILE", "CAPACITY": 28, "POPULATION": 28, "COUNTYFIPS": "12031" }, "geometry": { "type": "Point", "coordinates": [ -81.773450424966043, 30.21088798388428 ] } },
{ "type": "Feature", "properties": { "OBJECTID": 152, "FACILITYID": "10006213", "NAME": "JEFFERSON COUNTY COMMUNITY WORK CENTER", "SECURELVL": "NOT AVAILABLE", "CAPACITY": 102, "POPULATION": 0, "COUNTYFIPS": "28063" }, "geometry": { "type": "Point", "coordinates": [ -91.07323606837933, 31.697010662225274 ] } },
{ "type": "Feature", "properties": { "OBJECTID": 153, "FACILITYID": "10000350", "NAME": "ESCAMBIA BOYS BASE", "SECURELVL": "JUVENILE", "CAPACITY": 28, "POPULATION": 18, "COUNTYFIPS": "12033" }, "geometry": { "type": "Point", "coordinates": [ -87.293497649364127, 30.406109558386923 ] } },
{ "type": "Feature", "properties": { "OBJECTID": 154, "FACILITYID": "10005065", "NAME": "NEZ PERCE COUNTY ADULT DETENTION CENTER", "SECURELVL": "NOT AVAILABLE", "CAPACITY": -999, "POPULATION": 120, "COUNTYFIPS": "16069" }, "geometry": { "type": "Point", "coordinates": [ -117.017412984168388, 46.43187056765769 ] } },
{ "type": "Feature", "properties": { "OBJECTID": 155, "FACILITYID": "10001813", "NAME": "YAZOO COUNTY COMMUNITY WORK CENTER", "SECURELVL": "MINIMUM", "CAPACITY": 102, "POPULATION": 0, "COUNTYFIPS": "28163" }, "geometry": { "type": "Point", "coordinates": [ -90.420695148013166, 32.848619310184347 ] } },
{ "type": "Feature", "properties": { "OBJECTID": 156, "FACILITYID": "10006063", "NAME": "CHERRY COUNTY JUSTICE CENTER", "SECURELVL": "NOT AVAILABLE", "CAPACITY": 30, "POPULATION": 10, "COUNTYFIPS": "31031" }, "geometry": { "type": "Point", "coordinates": [ -100.551426681462928, 42.875692520060532 ] } },
{ "type": "Feature", "properties": { "OBJECTID": 157, "FACILITYID": "10006661", "NAME": "FOREST RIDGE ACADEMY", "SECURELVL": "JUVENILE", "CAPACITY": -999, "POPULATION": -999, "COUNTYFIPS": "19063" }, "geometry": { "type": "Point", "coordinates": [ -94.70069494406863, 43.393400215407318 ] } },
{ "type": "Feature", "properties": { "OBJECTID": 158, "FACILITYID": "10003015", "NAME": "KIDSPEACE MESABI ACADEMY", "SECURELVL": "JUVENILE", "CAPACITY": -999, "POPULATION": 0, "COUNTYFIPS": "27137" }, "geometry": { "type": "Point", "coordinates": [ -92.771833593958178, 47.494888040201303 ] } },
{ "type": "Feature", "properties": { "OBJECTID": 159, "FACILITYID": "10002541", "NAME": "MARATHON COUNTY JUVENILE FACILITY", "SECURELVL": "JUVENILE", "CAPACITY": 20, "POPULATION": -999, "COUNTYFIPS": "55073" }, "geometry": { "type": "Point", "coordinates": [ -89.723019802715271, 44.948481082064724 ] } },
{ "type": "Feature", "properties": { "OBJECTID": 160, "FACILITYID": "10006104", "NAME": "CLAY COUNTY JAIL", "SECURELVL": "NOT AVAILABLE", "CAPACITY": 10, "POPULATION": 5, "COUNTYFIPS": "31035" }, "geometry": { "type": "Point", "coordinates": [ -98.053858498884239, 40.520952070985658 ] } },
{ "type": "Feature", "properties": { "OBJECTID": 161, "FACILITYID": "10000527", "NAME": "FORT MYERS YOUTH ACADEMY", "SECURELVL": "JUVENILE", "CAPACITY": 28, "POPULATION": -999, "COUNTYFIPS": "12071" }, "geometry": { "type": "Point", "coordinates": [ -81.808394713442226, 26.632293670489897 ] } },
{ "type": "Feature", "properties": { "OBJECTID": 162, "FACILITYID": "10004603", "NAME": "GULF ACADEMY", "SECURELVL": "JUVENILE", "CAPACITY": 56, "POPULATION": -999, "COUNTYFIPS": "12109" }, "geometry": { "type": "Point", "coordinates": [ -81.490029048125592, 29.722931934818064 ] } },
{ "type": "Feature", "properties": { "OBJECTID": 163, "FACILITYID": "10006707", "NAME": "SACRAMENTO COUNTY YOUTH DETENTION FACILITY", "SECURELVL": "JUVENILE", "CAPACITY": -999, "POPULATION": -999, "COUNTYFIPS": "06067" }, "geometry": { "type": "Point", "coordinates": [ -121.340590846838865, 38.546042254263327 ] } },
{ "type": "Feature", "properties": { "OBJECTID": 164, "FACILITYID": "10004577", "NAME": "HASTINGS COMPREHENSIVE MENTAL HEALTH TREATMENT PROGRAM \/ HASTINGS SUBSTANCE ABUSE PROGRAM", "SECURELVL": "JUVENILE", "CAPACITY": 64, "POPULATION": -999, "COUNTYFIPS": "12109" }, "geometry": { "type": "Point", "coordinates": [ -81.488934467915882, 29.722932221377416 ] } },
{ "type": "Feature", "properties": { "OBJECTID": 165, "FACILITYID": "10004263", "NAME": "JACKSON COUNTY COMMUNITY WORK CENTER", "SECURELVL": "MINIMUM", "CAPACITY": 102, "POPULATION": 0, "COUNTYFIPS": "28059" }, "geometry": { "type": "Point", "coordinates": [ -88.545656369526696, 30.373776362224472 ] } },
{ "type": "Feature", "properties": { "OBJECTID": 166, "FACILITYID": "10004605", "NAME": "HIGHLANDS YOUTH ACADEMY", "SECURELVL": "JUVENILE", "CAPACITY": 80, "POPULATION": 80, "COUNTYFIPS": "12105" }, "geometry": { "type": "Point", "coordinates": [ -81.367614179514916, 27.66612051884535 ] } },
{ "type": "Feature", "properties": { "OBJECTID": 167, "FACILITYID": "10005322", "NAME": "SAN BENITO COUNTY JAIL", "SECURELVL": "MAXIMUM", "CAPACITY": 142, "POPULATION": 120, "COUNTYFIPS": "06069" }, "geometry": { "type": "Point", "coordinates": [ -121.411669411426757, 36.884019302753096 ] } },
{ "type": "Feature", "properties": { "OBJECTID": 168, "FACILITYID": "10006231", "NAME": "SAN BENITO COUNTY JUVENILE HALL", "SECURELVL": "JUVENILE", "CAPACITY": 124, "POPULATION": -999, "COUNTYFIPS": "06069" }, "geometry": { "type": "Point", "coordinates": [ -121.412023683301612, 36.882705576657308 ] } },
{ "type": "Feature", "properties": { "OBJECTID": 169, "FACILITYID": "10006776", "NAME": "ORLEANS TEMPORARY DETENTION CENTER", "SECURELVL": "NOT AVAILABLE", "CAPACITY": -999, "POPULATION": -999, "COUNTYFIPS": "22071" }, "geometry": { "type": "Point", "coordinates": [ -90.098936511138191, 29.962183194502533 ] } },
{ "type": "Feature", "properties": { "OBJECTID": 170, "FACILITYID": "10002528", "NAME": "MARINETTE COUNTY JAIL \/ SHERIFF", "SECURELVL": "NOT AVAILABLE", "CAPACITY": -999, "POPULATION": -999, "COUNTYFIPS": "55075" }, "geometry": { "type": "Point", "coordinates": [ -87.636588327155053, 45.069540382132885 ] } },
{ "type": "Feature", "properties": { "OBJECTID": 171, "FACILITYID": "10006862", "NAME": "SHELBY COUNTY JUVENILE DETENTION BUREAU", "SECURELVL": "JUVENILE", "CAPACITY": 135, "POPULATION": -999, "COUNTYFIPS": "47157" }, "geometry": { "type": "Point", "coordinates": [ -90.039478133499387, 35.14552672473404 ] } },
{ "type": "Feature", "properties": { "OBJECTID": 172, "FACILITYID": "10004616", "NAME": "HILLSBOROUGH GIRLS ACADEMY", "SECURELVL": "JUVENILE", "CAPACITY": 20, "POPULATION": 13, "COUNTYFIPS": "12057" }, "geometry": { "type": "Point", "coordinates": [ -82.340762439156904, 27.968828106852673 ] } },
{ "type": "Feature", "properties": { "OBJECTID": 173, "FACILITYID": "10006662", "NAME": "NATCHEZ TRACE YOUTH ACADEMY", "SECURELVL": "JUVENILE", "CAPACITY": 90, "POPULATION": -999, "COUNTYFIPS": "47085" }, "geometry": { "type": "Point", "coordinates": [ -87.867612799025764, 35.833357425901127 ] } },
{ "type": "Feature", "properties": { "OBJECTID": 174, "FACILITYID": "10000399", "NAME": "JACKSONVILLE YOUTH ACADEMY", "SECURELVL": "JUVENILE", "CAPACITY": 24, "POPULATION": -999, "COUNTYFIPS": "12031" }, "geometry": { "type": "Point", "coordinates": [ -81.722050851088596, 30.541412813985389 ] } },
{ "type": "Feature", "properties": { "OBJECTID": 175, "FACILITYID": "10004564", "NAME": "JOANN BRIDGES ACADEMY", "SECURELVL": "JUVENILE", "CAPACITY": 28, "POPULATION": 23, "COUNTYFIPS": "12079" }, "geometry": { "type": "Point", "coordinates": [ -83.616440877719285, 30.454038703491516 ] } },
{ "type": "Feature", "properties": { "OBJECTID": 176, "FACILITYID": "10005333", "NAME": "HIGH DESERT JUVENILE DETENTION AND ASSESMENT CENTER", "SECURELVL": "JUVENILE", "CAPACITY": 200, "POPULATION": -999, "COUNTYFIPS": "06071" }, "geometry": { "type": "Point", "coordinates": [ -117.205653619835218, 34.63575815504835 ] } },
{ "type": "Feature", "properties": { "OBJECTID": 177, "FACILITYID": "10001823", "NAME": "GEORGE COUNTY COMMUNITY WORK CENTER", "SECURELVL": "MINIMUM", "CAPACITY": 102, "POPULATION": 66, "COUNTYFIPS": "28039" }, "geometry": { "type": "Point", "coordinates": [ -88.586560336066398, 30.929492458233511 ] } },
{ "type": "Feature", "properties": { "OBJECTID": 178, "FACILITYID": "10004753", "NAME": "STEWART COUNTY JAIL", "SECURELVL": "NOT AVAILABLE", "CAPACITY": 132, "POPULATION": 80, "COUNTYFIPS": "47161" }, "geometry": { "type": "Point", "coordinates": [ -87.843047638740742, 36.481816366659068 ] } },
{ "type": "Feature", "properties": { "OBJECTID": 179, "FACILITYID": "10006212", "NAME": "HARRISON COUNTY COMMUNITY WORK CENTER", "SECURELVL": "MINIMUM", "CAPACITY": 102, "POPULATION": 57, "COUNTYFIPS": "28047" }, "geometry": { "type": "Point", "coordinates": [ -89.068070159902192, 30.397926462797077 ] } },
{ "type": "Feature", "properties": { "OBJECTID": 180, "FACILITYID": "10000828", "NAME": "HIGH DESERT DETENTION CENTER", "SECURELVL": "MEDIUM", "CAPACITY": 700, "POPULATION": 1203, "COUNTYFIPS": "06071" }, "geometry": { "type": "Point", "coordinates": [ -117.45762529167294, 34.54750215376891 ] } },
{ "type": "Feature", "properties": { "OBJECTID": 181, "FACILITYID": "10003041", "NAME": "SOUTHWESTERN YOUTH SERVICES", "SECURELVL": "JUVENILE", "CAPACITY": -999, "POPULATION": -999, "COUNTYFIPS": "27133" }, "geometry": { "type": "Point", "coordinates": [ -96.083895782935357, 43.64591371733993 ] } },
{ "type": "Feature", "properties": { "OBJECTID": 182, "FACILITYID": "10005331", "NAME": "WEST VALLEY DETENTION CENTER", "SECURELVL": "MAXIMUM", "CAPACITY": 3347, "POPULATION": 2572, "COUNTYFIPS": "06071" }, "geometry": { "type": "Point", "coordinates": [ -117.529150479530657, 34.081189026228436 ] } },
{ "type": "Feature", "properties": { "OBJECTID": 183, "FACILITYID": "10005330", "NAME": "REGIONAL YOUTH EDUCATIONAL FACILITY", "SECURELVL": "JUVENILE", "CAPACITY": 20, "POPULATION": -999, "COUNTYFIPS": "06071" }, "geometry": { "type": "Point", "coordinates": [ -117.269802511291019, 34.129087500220294 ] } },
{ "type": "Feature", "properties": { "OBJECTID": 184, "FACILITYID": "10004608", "NAME": "KISSIMMEE YOUTH ACADEMY", "SECURELVL": "JUVENILE", "CAPACITY": 62, "POPULATION": -999, "COUNTYFIPS": "12097" }, "geometry": { "type": "Point", "coordinates": [ -81.347096708601313, 28.293109613211968 ] } },
{ "type": "Feature", "properties": { "OBJECTID": 185, "FACILITYID": "10004614", "NAME": "TAMPA RESIDENTIAL FACILITY", "SECURELVL": "JUVENILE", "CAPACITY": 60, "POPULATION": 56, "COUNTYFIPS": "12057" }, "geometry": { "type": "Point", "coordinates": [ -82.340902282309017, 27.967044353527729 ] } },
{ "type": "Feature", "properties": { "OBJECTID": 186, "FACILITYID": "10006566", "NAME": "MADISON COUNTY COMMUNITY WORK CENTER", "SECURELVL": "MINIMUM", "CAPACITY": 62, "POPULATION": 62, "COUNTYFIPS": "28089" }, "geometry": { "type": "Point", "coordinates": [ -90.047164273782201, 32.586918492007243 ] } },
{ "type": "Feature", "properties": { "OBJECTID": 187, "FACILITYID": "10005360", "NAME": "FACILITY 8 DETENTION FACILITY", "SECURELVL": "MEDIUM", "CAPACITY": 200, "POPULATION": 248, "COUNTYFIPS": "06073" }, "geometry": { "type": "Point", "coordinates": [ -116.923286674517129, 32.591343703721499 ] } },
{ "type": "Feature", "properties": { "OBJECTID": 188, "FACILITYID": "10004239", "NAME": "NOXUBEE COUNTY COMMUNITY WORK CENTER", "SECURELVL": "MINIMUM", "CAPACITY": 58, "POPULATION": 46, "COUNTYFIPS": "28103" }, "geometry": { "type": "Point", "coordinates": [ -88.567776227826428, 33.120502336907485 ] } },
{ "type": "Feature", "properties": { "OBJECTID": 189, "FACILITYID": "10001538", "NAME": "GEORGE F BAILEY DETENTION FACILITY", "SECURELVL": "MAXIMUM", "CAPACITY": 1380, "POPULATION": 1668, "COUNTYFIPS": "06073" }, "geometry": { "type": "Point", "coordinates": [ -116.92149827982557, 32.590543109117164 ] } },
{ "type": "Feature", "properties": { "OBJECTID": 190, "FACILITYID": "10004260", "NAME": "PIKE COUNTY COMMUNITY WORK CENTER", "SECURELVL": "MINIMUM", "CAPACITY": 93, "POPULATION": 87, "COUNTYFIPS": "28113" }, "geometry": { "type": "Point", "coordinates": [ -90.454956660471126, 31.173681622966797 ] } },
{ "type": "Feature", "properties": { "OBJECTID": 191, "FACILITYID": "10006730", "NAME": "REGION II JUVENILE DETENTION CENTER", "SECURELVL": "JUVENILE", "CAPACITY": 16, "POPULATION": -999, "COUNTYFIPS": "16069" }, "geometry": { "type": "Point", "coordinates": [ -117.021734092930117, 46.418307245189652 ] } },
{ "type": "Feature", "properties": { "OBJECTID": 192, "FACILITYID": "10006663", "NAME": "WOODWARD ACADEMY", "SECURELVL": "JUVENILE", "CAPACITY": -999, "POPULATION": 262, "COUNTYFIPS": "19049" }, "geometry": { "type": "Point", "coordinates": [ -93.914388020202651, 41.872824606864953 ] } },
{ "type": "Feature", "properties": { "OBJECTID": 193, "FACILITYID": "10004994", "NAME": "CHAMBERLAIN ACADEMY", "SECURELVL": "JUVENILE", "CAPACITY": 40, "POPULATION": 0, "COUNTYFIPS": "46015" }, "geometry": { "type": "Point", "coordinates": [ -99.33962721319314, 43.799829982079075 ] } },
{ "type": "Feature", "properties": { "OBJECTID": 194, "FACILITYID": "10002597", "NAME": "MILWAUKEE COUNTY HOUSE OF CORRECTION", "SECURELVL": "NOT AVAILABLE", "CAPACITY": -999, "POPULATION": 1800, "COUNTYFIPS": "55079" }, "geometry": { "type": "Point", "coordinates": [ -88.002149088972246, 42.880096182496331 ] } },
{ "type": "Feature", "properties": { "OBJECTID": 1601, "FACILITYID": "10006935", "NAME": "MCF - MOOSE LAKE", "SECURELVL": "MEDIUM", "CAPACITY": 1053, "POPULATION": 1037, "COUNTYFIPS": "27017" }, "geometry": { "type": "Point", "coordinates": [ -92.759058367730148, 46.439442354963596 ] } },
{ "type": "Feature", "properties": { "OBJECTID": 195, "FACILITYID": "10002666", "NAME": "SPRINGFIELD ACADEMY", "SECURELVL": "JUVENILE", "CAPACITY": 72, "POPULATION": 0, "COUNTYFIPS": "46009" }, "geometry": { "type": "Point", "coordinates": [ -97.894920658683915, 42.851360380420559 ] } },
{ "type": "Feature", "properties": { "OBJECTID": 196, "FACILITYID": "10004251", "NAME": "SIMPSON COUNTY TECHNICAL VIOLATION CENTER", "SECURELVL": "MINIMUM", "CAPACITY": 102, "POPULATION": 58, "COUNTYFIPS": "28127" }, "geometry": { "type": "Point", "coordinates": [ -89.72354280933618, 31.864378900563807 ] } },
{ "type": "Feature", "properties": { "OBJECTID": 197, "FACILITYID": "10006534", "NAME": "LAKE ACADEMY", "SECURELVL": "JUVENILE", "CAPACITY": 48, "POPULATION": 41, "COUNTYFIPS": "12057" }, "geometry": { "type": "Point", "coordinates": [ -82.342346365795507, 27.967540708074221 ] } },
{ "type": "Feature", "properties": { "OBJECTID": 198, "FACILITYID": "10002657", "NAME": "SOUTH DAKOTA WOMEN'S PRISON", "SECURELVL": "MAXIMUM", "CAPACITY": 460, "POPULATION": 213, "COUNTYFIPS": "46065" }, "geometry": { "type": "Point", "coordinates": [ -100.30809814738474, 44.357992774936704 ] } },
{ "type": "Feature", "properties": { "OBJECTID": 199, "FACILITYID": "10000485", "NAME": "LES PETERS ACADEMY", "SECURELVL": "JUVENILE", "CAPACITY": 24, "POPULATION": 22, "COUNTYFIPS": "12057" }, "geometry": { "type": "Point", "coordinates": [ -82.509207384409862, 27.980991156423496 ] } },
{ "type": "Feature", "properties": { "OBJECTID": 200, "FACILITYID": "10006567", "NAME": "QUITMAN COUNTY COMMUNITY WORK CENTER", "SECURELVL": "MINIMUM", "CAPACITY": 93, "POPULATION": 47, "COUNTYFIPS": "28119" }, "geometry": { "type": "Point", "coordinates": [ -90.276256935670801, 34.154155809745575 ] } },
{ "type": "Feature", "properties": { "OBJECTID": 201, "FACILITYID": "10000876", "NAME": "LAS COLINAS DETENTION AND REENTRY FACILITY", "SECURELVL": "MAXIMUM", "CAPACITY": 1270, "POPULATION": 846, "COUNTYFIPS": "06073" }, "geometry": { "type": "Point", "coordinates": [ -116.973381912469563, 32.842112709043839 ] } },
{ "type": "Feature", "properties": { "OBJECTID": 202, "FACILITYID": "10000870", "NAME": "SOUTH BAY DETENTION FACILITY", "SECURELVL": "MAXIMUM", "CAPACITY": 386, "POPULATION": 389, "COUNTYFIPS": "06073" }, "geometry": { "type": "Point", "coordinates": [ -117.077531116896751, 32.633040642958939 ] } },
{ "type": "Feature", "properties": { "OBJECTID": 203, "FACILITYID": "10005082", "NAME": "OWYHEE COUNTY JAIL", "SECURELVL": "NOT AVAILABLE", "CAPACITY": -999, "POPULATION": -999, "COUNTYFIPS": "16073" }, "geometry": { "type": "Point", "coordinates": [ -116.551086663067068, 43.216721650730314 ] } },
{ "type": "Feature", "properties": { "OBJECTID": 204, "FACILITYID": "10003491", "NAME": "SULLIVAN COUNTY JAIL", "SECURELVL": "NOT AVAILABLE", "CAPACITY": 623, "POPULATION": 757, "COUNTYFIPS": "47163" }, "geometry": { "type": "Point", "coordinates": [ -82.32030881871141, 36.536641879703886 ] } },
{ "type": "Feature", "properties": { "OBJECTID": 205, "FACILITYID": "10006828", "NAME": "COLFAX COUNTY JAIL", "SECURELVL": "NOT AVAILABLE", "CAPACITY": 4, "POPULATION": -999, "COUNTYFIPS": "31037" }, "geometry": { "type": "Point", "coordinates": [ -97.055357866624149, 41.44700269946032 ] } },
{ "type": "Feature", "properties": { "OBJECTID": 206, "FACILITYID": "10006005", "NAME": "TIPTON COUNTY JAIL", "SECURELVL": "NOT AVAILABLE", "CAPACITY": 201, "POPULATION": 251, "COUNTYFIPS": "47167" }, "geometry": { "type": "Point", "coordinates": [ -89.650787492024051, 35.543335563817678 ] } },
{ "type": "Feature", "properties": { "OBJECTID": 207, "FACILITYID": "10005077", "NAME": "PAYETTE COUNTY JAIL", "SECURELVL": "NOT AVAILABLE", "CAPACITY": 72, "POPULATION": -999, "COUNTYFIPS": "16075" }, "geometry": { "type": "Point", "coordinates": [ -116.929588588836836, 44.077533597729058 ] } },
{ "type": "Feature", "properties": { "OBJECTID": 208, "FACILITYID": "10000442", "NAME": "MARION YOUTH ACADEMY", "SECURELVL": "JUVENILE", "CAPACITY": 48, "POPULATION": 42, "COUNTYFIPS": "12083" }, "geometry": { "type": "Point", "coordinates": [ -82.194663511503151, 29.300898488755035 ] } },
{ "type": "Feature", "properties": { "OBJECTID": 209, "FACILITYID": "10006568", "NAME": "OAKLEY YOUTH DEVELOPMENT CENTER", "SECURELVL": "JUVENILE", "CAPACITY": 150, "POPULATION": -999, "COUNTYFIPS": "28049" }, "geometry": { "type": "Point", "coordinates": [ -90.509619033295934, 32.21928686186606 ] } },
{ "type": "Feature", "properties": { "OBJECTID": 210, "FACILITYID": "10000459", "NAME": "MELBOURNE CENTER FOR PERSONAL GROWTH", "SECURELVL": "JUVENILE", "CAPACITY": 32, "POPULATION": 28, "COUNTYFIPS": "12009" }, "geometry": { "type": "Point", "coordinates": [ -80.713590118870968, 28.122791190784504 ] } },
{ "type": "Feature", "properties": { "OBJECTID": 211, "FACILITYID": "10001808", "NAME": "DELTA CORRECTIONAL FACILITY", "SECURELVL": "MEDIUM", "CAPACITY": 1000, "POPULATION": 0, "COUNTYFIPS": "28083" }, "geometry": { "type": "Point", "coordinates": [ -90.212079482228475, 33.480642267139693 ] } },
{ "type": "Feature", "properties": { "OBJECTID": 212, "FACILITYID": "10004651", "NAME": "MIAMI YOUTH ACADEMY", "SECURELVL": "JUVENILE", "CAPACITY": 28, "POPULATION": 24, "COUNTYFIPS": "12086" }, "geometry": { "type": "Point", "coordinates": [ -80.369064555583719, 25.690963531527867 ] } },
{ "type": "Feature", "properties": { "OBJECTID": 213, "FACILITYID": "10006081", "NAME": "CUSTER COUNTY JAIL \/ SHERIFF", "SECURELVL": "NOT AVAILABLE", "CAPACITY": 26, "POPULATION": 8, "COUNTYFIPS": "31041" }, "geometry": { "type": "Point", "coordinates": [ -99.642574090407635, 41.404857796489495 ] } },
{ "type": "Feature", "properties": { "OBJECTID": 214, "FACILITYID": "10002573", "NAME": "MONROE COUNTY JAIL", "SECURELVL": "NOT AVAILABLE", "CAPACITY": -999, "POPULATION": 519, "COUNTYFIPS": "55081" }, "geometry": { "type": "Point", "coordinates": [ -90.813261359564933, 43.944335955569542 ] } },
{ "type": "Feature", "properties": { "OBJECTID": 215, "FACILITYID": "10003624", "NAME": "MONTANA STATE PRISON", "SECURELVL": "MAXIMUM", "CAPACITY": 1495, "POPULATION": 1550, "COUNTYFIPS": "30077" }, "geometry": { "type": "Point", "coordinates": [ -112.80032053753888, 46.383024910415813 ] } },
{ "type": "Feature", "properties": { "OBJECTID": 216, "FACILITYID": "10002658", "NAME": "WOMEN'S STATE PRISON - UNIT E", "SECURELVL": "MINIMUM", "CAPACITY": -999, "POPULATION": 94, "COUNTYFIPS": "46065" }, "geometry": { "type": "Point", "coordinates": [ -100.303733957015851, 44.358835287627073 ] } },
{ "type": "Feature", "properties": { "OBJECTID": 217, "FACILITYID": "10003507", "NAME": "MORGAN COUNTY CORRECTIONAL COMPLEX", "SECURELVL": "MAXIMUM", "CAPACITY": 2230, "POPULATION": 2149, "COUNTYFIPS": "47129" }, "geometry": { "type": "Point", "coordinates": [ -84.53919756204526, 36.113470731608899 ] } },
{ "type": "Feature", "properties": { "OBJECTID": 218, "FACILITYID": "10004625", "NAME": "OKEECHOBEE GIRLS ACADEMY", "SECURELVL": "JUVENILE", "CAPACITY": 32, "POPULATION": 41, "COUNTYFIPS": "12093" }, "geometry": { "type": "Point", "coordinates": [ -80.819513790915479, 27.294402757362388 ] } },
{ "type": "Feature", "properties": { "OBJECTID": 219, "FACILITYID": "10000498", "NAME": "OKEECHOBEE INTENSIVE HALFWAY HOUSE", "SECURELVL": "JUVENILE", "CAPACITY": 30, "POPULATION": 30, "COUNTYFIPS": "12093" }, "geometry": { "type": "Point", "coordinates": [ -80.820262355129813, 27.307143467978822 ] } },
{ "type": "Feature", "properties": { "OBJECTID": 220, "FACILITYID": "10000872", "NAME": "SAN DIEGO CENTRAL JAIL", "SECURELVL": "NOT AVAILABLE", "CAPACITY": 944, "POPULATION": 1008, "COUNTYFIPS": "06073" }, "geometry": { "type": "Point", "coordinates": [ -117.164271573260336, 32.717252112529614 ] } },
{ "type": "Feature", "properties": { "OBJECTID": 221, "FACILITYID": "10000496", "NAME": "OKEECHOBEE JUVENILE OFFENDER CORRECTIONS CENTER", "SECURELVL": "JUVENILE", "CAPACITY": 48, "POPULATION": 54, "COUNTYFIPS": "12093" }, "geometry": { "type": "Point", "coordinates": [ -80.775429299302729, 27.394029201879167 ] } },
{ "type": "Feature", "properties": { "OBJECTID": 222, "FACILITYID": "10001933", "NAME": "CASCADE COUNTY REGIONAL PRISON", "SECURELVL": "NOT AVAILABLE", "CAPACITY": 152, "POPULATION": 152, "COUNTYFIPS": "30013" }, "geometry": { "type": "Point", "coordinates": [ -111.367625117396912, 47.468972139681348 ] } },
{ "type": "Feature", "properties": { "OBJECTID": 223, "FACILITYID": "10001155", "NAME": "DAWSON COUNTY CORRECTIONAL FACILITY", "SECURELVL": "NOT AVAILABLE", "CAPACITY": 141, "POPULATION": 141, "COUNTYFIPS": "30021" }, "geometry": { "type": "Point", "coordinates": [ -104.685221648893815, 47.131081096038884 ] } },
{ "type": "Feature", "properties": { "OBJECTID": 224, "FACILITYID": "10006777", "NAME": "YOUTH STUDY CENTER", "SECURELVL": "JUVENILE", "CAPACITY": -999, "POPULATION": -999, "COUNTYFIPS": "22071" }, "geometry": { "type": "Point", "coordinates": [ -90.084283675769015, 29.994056173904021 ] } },
{ "type": "Feature", "properties": { "OBJECTID": 225, "FACILITYID": "10003492", "NAME": "NORTHEAST CORRECTIONAL COMPLEX-MAIN", "SECURELVL": "MAXIMUM", "CAPACITY": 1700, "POPULATION": -999, "COUNTYFIPS": "47091" }, "geometry": { "type": "Point", "coordinates": [ -81.885514685228827, 36.447662803813678 ] } },
{ "type": "Feature", "properties": { "OBJECTID": 226, "FACILITYID": "10005085", "NAME": "POWER COUNTY JAIL", "SECURELVL": "NOT AVAILABLE", "CAPACITY": -999, "POPULATION": 14, "COUNTYFIPS": "16077" }, "geometry": { "type": "Point", "coordinates": [ -112.848984176208759, 42.782963786875889 ] } },
{ "type": "Feature", "properties": { "OBJECTID": 227, "FACILITYID": "10006291", "NAME": "OUACHITA PARISH WORK RELEASE FACILITY", "SECURELVL": "MINIMUM", "CAPACITY": 290, "POPULATION": 211, "COUNTYFIPS": "22073" }, "geometry": { "type": "Point", "coordinates": [ -92.109174344057664, 32.451754178507066 ] } },
{ "type": "Feature", "properties": { "OBJECTID": 228, "FACILITYID": "10006070", "NAME": "DAKOTA COUNTY JAIL", "SECURELVL": "NOT AVAILABLE", "CAPACITY": 129, "POPULATION": 88, "COUNTYFIPS": "31043" }, "geometry": { "type": "Point", "coordinates": [ -96.41956800945357, 42.416037161224473 ] } },
{ "type": "Feature", "properties": { "OBJECTID": 229, "FACILITYID": "10006061", "NAME": "DAWES COUNTY JAIL", "SECURELVL": "NOT AVAILABLE", "CAPACITY": 19, "POPULATION": 8, "COUNTYFIPS": "31045" }, "geometry": { "type": "Point", "coordinates": [ -103.001408272978182, 42.827177427960649 ] } },
{ "type": "Feature", "properties": { "OBJECTID": 230, "FACILITYID": "10006095", "NAME": "DAWSON COUNTY JAIL", "SECURELVL": "NOT AVAILABLE", "CAPACITY": 126, "POPULATION": 80, "COUNTYFIPS": "31047" }, "geometry": { "type": "Point", "coordinates": [ -99.740582942048732, 40.78046913884063 ] } },
{ "type": "Feature", "properties": { "OBJECTID": 231, "FACILITYID": "10005358", "NAME": "VISTA DETENTION FACILITY", "SECURELVL": "NOT AVAILABLE", "CAPACITY": 825, "POPULATION": 799, "COUNTYFIPS": "06073" }, "geometry": { "type": "Point", "coordinates": [ -117.256928229032511, 33.191856692229635 ] } },
{ "type": "Feature", "properties": { "OBJECTID": 232, "FACILITYID": "10003626", "NAME": "MONTANA WOMEN'S PRISON", "SECURELVL": "MAXIMUM", "CAPACITY": 194, "POPULATION": 208, "COUNTYFIPS": "30111" }, "geometry": { "type": "Point", "coordinates": [ -108.495474427105563, 45.775051115055042 ] } },
{ "type": "Feature", "properties": { "OBJECTID": 233, "FACILITYID": "10000875", "NAME": "KEARNY MESA JUVENILE DETENTION FACILITY", "SECURELVL": "JUVENILE", "CAPACITY": 359, "POPULATION": -999, "COUNTYFIPS": "06073" }, "geometry": { "type": "Point", "coordinates": [ -117.153389897695007, 32.794226708782553 ] } },
{ "type": "Feature", "properties": { "OBJECTID": 234, "FACILITYID": "10006535", "NAME": "OKEECHOBEE YOUTH DEVELOPMENT CENTER \/ CORRECTIONAL CENTER AND YOUTH TREATMENT CENTER", "SECURELVL": "JUVENILE", "CAPACITY": 130, "POPULATION": 128, "COUNTYFIPS": "12093" }, "geometry": { "type": "Point", "coordinates": [ -80.822919346722315, 27.304589491724716 ] } },
{ "type": "Feature", "properties": { "OBJECTID": 235, "FACILITYID": "10001703", "NAME": "NORTHEAST CORRECTIONAL COMPLEX - ANNEX", "SECURELVL": "MINIMUM", "CAPACITY": 180, "POPULATION": -999, "COUNTYFIPS": "47019" }, "geometry": { "type": "Point", "coordinates": [ -82.106464572036003, 36.211710507787664 ] } },
{ "type": "Feature", "properties": { "OBJECTID": 236, "FACILITYID": "10006569", "NAME": "LEWISTOWN INFIRMARY", "SECURELVL": "NOT AVAILABLE", "CAPACITY": 25, "POPULATION": 24, "COUNTYFIPS": "30027" }, "geometry": { "type": "Point", "coordinates": [ -109.425744796843233, 47.056390782230409 ] } },
{ "type": "Feature", "properties": { "OBJECTID": 237, "FACILITYID": "10001709", "NAME": "RIVERBEND MAXIMUM SECURITY INSTITUTION", "SECURELVL": "MAXIMUM", "CAPACITY": 808, "POPULATION": 787, "COUNTYFIPS": "47037" }, "geometry": { "type": "Point", "coordinates": [ -86.902179600921471, 36.186049077078614 ] } },
{ "type": "Feature", "properties": { "OBJECTID": 238, "FACILITYID": "10006103", "NAME": "FILLMORE COUNTY JAIL", "SECURELVL": "NOT AVAILABLE", "CAPACITY": 8, "POPULATION": 7, "COUNTYFIPS": "31059" }, "geometry": { "type": "Point", "coordinates": [ -97.602830808103889, 40.525166250230704 ] } },
{ "type": "Feature", "properties": { "OBJECTID": 239, "FACILITYID": "10005060", "NAME": "SHOSHONE COUNTY JAIL", "SECURELVL": "NOT AVAILABLE", "CAPACITY": 64, "POPULATION": -999, "COUNTYFIPS": "16079" }, "geometry": { "type": "Point", "coordinates": [ -115.921433460323996, 47.471852435776292 ] } },
{ "type": "Feature", "properties": { "OBJECTID": 240, "FACILITYID": "10001190", "NAME": "TWIN FALLS ADULT DETENTION FACILITY", "SECURELVL": "NOT AVAILABLE", "CAPACITY": 224, "POPULATION": 242, "COUNTYFIPS": "16083" }, "geometry": { "type": "Point", "coordinates": [ -114.466779856742448, 42.559373605216699 ] } },
{ "type": "Feature", "properties": { "OBJECTID": 241, "FACILITYID": "10004765", "NAME": "TROUSDALE COUNTY JAIL", "SECURELVL": "NOT AVAILABLE", "CAPACITY": 44, "POPULATION": 43, "COUNTYFIPS": "47169" }, "geometry": { "type": "Point", "coordinates": [ -86.164346115924801, 36.390777865945012 ] } },
{ "type": "Feature", "properties": { "OBJECTID": 242, "FACILITYID": "10006292", "NAME": "GREEN OAKS JUVENILE DETENTION", "SECURELVL": "JUVENILE", "CAPACITY": 60, "POPULATION": -999, "COUNTYFIPS": "22073" }, "geometry": { "type": "Point", "coordinates": [ -92.109964656369883, 32.450203076514441 ] } },
{ "type": "Feature", "properties": { "OBJECTID": 243, "FACILITYID": "10000463", "NAME": "ORLANDO INTENSIVE YOUTH ACADEMY AND ORANGE YOUTH ACADEMY", "SECURELVL": "JUVENILE", "CAPACITY": 56, "POPULATION": 50, "COUNTYFIPS": "12095" }, "geometry": { "type": "Point", "coordinates": [ -81.420327861019402, 28.502691642313344 ] } },
{ "type": "Feature", "properties": { "OBJECTID": 244, "FACILITYID": "10000515", "NAME": "PALM BEACH YOUTH ACADEMY", "SECURELVL": "JUVENILE", "CAPACITY": 78, "POPULATION": 115, "COUNTYFIPS": "12099" }, "geometry": { "type": "Point", "coordinates": [ -80.197838175244101, 26.686989448999924 ] } },
{ "type": "Feature", "properties": { "OBJECTID": 245, "FACILITYID": "10002184", "NAME": "PALMETTO YOUTH ACADEMY", "SECURELVL": "JUVENILE", "CAPACITY": 48, "POPULATION": 46, "COUNTYFIPS": "12081" }, "geometry": { "type": "Point", "coordinates": [ -82.536894156167961, 27.643703757692869 ] } },
{ "type": "Feature", "properties": { "OBJECTID": 246, "FACILITYID": "10002182", "NAME": "POLK HALFWAY HOUSE", "SECURELVL": "JUVENILE", "CAPACITY": 24, "POPULATION": 23, "COUNTYFIPS": "12105" }, "geometry": { "type": "Point", "coordinates": [ -81.822465105087844, 27.8797592768654 ] } },
{ "type": "Feature", "properties": { "OBJECTID": 247, "FACILITYID": "10005691", "NAME": "SNAKE RIVER JUVENILE DETENTION CENTER", "SECURELVL": "JUVENILE", "CAPACITY": 27, "POPULATION": 16, "COUNTYFIPS": "16083" }, "geometry": { "type": "Point", "coordinates": [ -114.432813197516381, 42.543713085474209 ] } },
{ "type": "Feature", "properties": { "OBJECTID": 248, "FACILITYID": "10005354", "NAME": "EAST MESA JUVENILE DETENTION FACILITY", "SECURELVL": "JUVENILE", "CAPACITY": 290, "POPULATION": -999, "COUNTYFIPS": "06073" }, "geometry": { "type": "Point", "coordinates": [ -116.918121143334432, 32.590858302341154 ] } },
{ "type": "Feature", "properties": { "OBJECTID": 249, "FACILITYID": "10001705", "NAME": "TENNESSEE PRISON FOR WOMEN", "SECURELVL": "MAXIMUM", "CAPACITY": 817, "POPULATION": 685, "COUNTYFIPS": "47037" }, "geometry": { "type": "Point", "coordinates": [ -86.859573380735455, 36.193621910356747 ] } },
{ "type": "Feature", "properties": { "OBJECTID": 250, "FACILITYID": "10006108", "NAME": "GAGE COUNTY CORRECTIONS", "SECURELVL": "NOT AVAILABLE", "CAPACITY": 26, "POPULATION": 34, "COUNTYFIPS": "31067" }, "geometry": { "type": "Point", "coordinates": [ -96.746066156727494, 40.272030384320821 ] } },
{ "type": "Feature", "properties": { "OBJECTID": 251, "FACILITYID": "10004092", "NAME": "POINTE COUPEE PARISH DETENTION CENTER", "SECURELVL": "NOT AVAILABLE", "CAPACITY": 209, "POPULATION": 128, "COUNTYFIPS": "22077" }, "geometry": { "type": "Point", "coordinates": [ -91.383631628492381, 30.74696220696385 ] } },
{ "type": "Feature", "properties": { "OBJECTID": 252, "FACILITYID": "10006110", "NAME": "FURNAS COUNTY JAIL", "SECURELVL": "NOT AVAILABLE", "CAPACITY": 8, "POPULATION": 1, "COUNTYFIPS": "31065" }, "geometry": { "type": "Point", "coordinates": [ -99.827683749404287, 40.138776841259343 ] } },
{ "type": "Feature", "properties": { "OBJECTID": 253, "FACILITYID": "10005069", "NAME": "VALLEY COUNTY JAIL", "SECURELVL": "NOT AVAILABLE", "CAPACITY": -999, "POPULATION": -999, "COUNTYFIPS": "16085" }, "geometry": { "type": "Point", "coordinates": [ -116.04401801909512, 44.516894335011287 ] } },
{ "type": "Feature", "properties": { "OBJECTID": 254, "FACILITYID": "10006094", "NAME": "HAMILTON COUNTY JAIL", "SECURELVL": "NOT AVAILABLE", "CAPACITY": 34, "POPULATION": 8, "COUNTYFIPS": "31081" }, "geometry": { "type": "Point", "coordinates": [ -98.003222940236185, 40.864090709788364 ] } },
{ "type": "Feature", "properties": { "OBJECTID": 255, "FACILITYID": "10000380", "NAME": "RAM-C PROGRAM", "SECURELVL": "JUVENILE", "CAPACITY": 40, "POPULATION": -999, "COUNTYFIPS": "12079" }, "geometry": { "type": "Point", "coordinates": [ -83.619897475412259, 30.453279615653067 ] } },
{ "type": "Feature", "properties": { "OBJECTID": 256, "FACILITYID": "10006184", "NAME": "CONNECTIONS CORRECTIONS - BUTTE", "SECURELVL": "MINIMUM", "CAPACITY": 52, "POPULATION": 52, "COUNTYFIPS": "30093" }, "geometry": { "type": "Point", "coordinates": [ -112.538002672211434, 46.013775843425279 ] } },
{ "type": "Feature", "properties": { "OBJECTID": 257, "FACILITYID": "10002157", "NAME": "SAINT JOHN'S YOUTH ACADEMY", "SECURELVL": "JUVENILE", "CAPACITY": 70, "POPULATION": 63, "COUNTYFIPS": "12109" }, "geometry": { "type": "Point", "coordinates": [ -81.339243198112072, 29.942123317415536 ] } },
{ "type": "Feature", "properties": { "OBJECTID": 258, "FACILITYID": "10000390", "NAME": "JUVENILE UNIT FOR SPECIALIZED TREATMENT", "SECURELVL": "JUVENILE", "CAPACITY": 44, "POPULATION": 65, "COUNTYFIPS": "12077" }, "geometry": { "type": "Point", "coordinates": [ -84.940438633700154, 30.185106369724203 ] } },
{ "type": "Feature", "properties": { "OBJECTID": 259, "FACILITYID": "10005356", "NAME": "GIRLS REHABILITATION FACILITY", "SECURELVL": "JUVENILE", "CAPACITY": 50, "POPULATION": -999, "COUNTYFIPS": "06073" }, "geometry": { "type": "Point", "coordinates": [ -117.152291130215588, 32.794699919609279 ] } },
{ "type": "Feature", "properties": { "OBJECTID": 260, "FACILITYID": "10004582", "NAME": "UNION JUVENILE RESIDENTIAL FACILITY", "SECURELVL": "JUVENILE", "CAPACITY": 24, "POPULATION": 23, "COUNTYFIPS": "12125" }, "geometry": { "type": "Point", "coordinates": [ -82.192982529606013, 30.085653892409105 ] } },
{ "type": "Feature", "properties": { "OBJECTID": 261, "FACILITYID": "10005917", "NAME": "RAPIDES PARISH DETENTION CENTER I", "SECURELVL": "NOT AVAILABLE", "CAPACITY": 348, "POPULATION": 356, "COUNTYFIPS": "22079" }, "geometry": { "type": "Point", "coordinates": [ -92.447029011713354, 31.308656782937099 ] } },
{ "type": "Feature", "properties": { "OBJECTID": 262, "FACILITYID": "10001014", "NAME": "TURNEY CENTER INDUSTRIAL COMPLEX", "SECURELVL": "CLOSE", "CAPACITY": 1184, "POPULATION": 1565, "COUNTYFIPS": "47081" }, "geometry": { "type": "Point", "coordinates": [ -87.687931152257903, 35.831584443814059 ] } },
{ "type": "Feature", "properties": { "OBJECTID": 263, "FACILITYID": "10004766", "NAME": "UNION COUNTY JAIL", "SECURELVL": "NOT AVAILABLE", "CAPACITY": 76, "POPULATION": 110, "COUNTYFIPS": "47173" }, "geometry": { "type": "Point", "coordinates": [ -83.798804946473709, 36.249935396488766 ] } },
{ "type": "Feature", "properties": { "OBJECTID": 264, "FACILITYID": "10000363", "NAME": "WALTON ACADEMY FOR GROWTH AND CHANGE", "SECURELVL": "JUVENILE", "CAPACITY": 39, "POPULATION": 40, "COUNTYFIPS": "12131" }, "geometry": { "type": "Point", "coordinates": [ -86.163653166424112, 30.734444168018729 ] } },
{ "type": "Feature", "properties": { "OBJECTID": 265, "FACILITYID": "10006112", "NAME": "HITCHCOCK COUNTY JAIL \/ SHERIFF", "SECURELVL": "NOT AVAILABLE", "CAPACITY": 8, "POPULATION": 3, "COUNTYFIPS": "31087" }, "geometry": { "type": "Point", "coordinates": [ -101.010203631035139, 40.176454512820001 ] } },
{ "type": "Feature", "properties": { "OBJECTID": 266, "FACILITYID": "10004618", "NAME": "YOUTH ENVIRONMENTAL SERVICES", "SECURELVL": "JUVENILE", "CAPACITY": 32, "POPULATION": -999, "COUNTYFIPS": "12057" }, "geometry": { "type": "Point", "coordinates": [ -82.321379442523693, 27.65414225676377 ] } },
{ "type": "Feature", "properties": { "OBJECTID": 267, "FACILITYID": "10001720", "NAME": "MARK H LUTTRELL TRANSITION CENTER", "SECURELVL": "MEDIUM", "CAPACITY": 454, "POPULATION": 244, "COUNTYFIPS": "47157" }, "geometry": { "type": "Point", "coordinates": [ -89.862152304425464, 35.156136800666808 ] } },
{ "type": "Feature", "properties": { "OBJECTID": 268, "FACILITYID": "10000345", "NAME": "PENSACOLA COMMUNITY RELEASE CENTER", "SECURELVL": "MINIMUM", "CAPACITY": -999, "POPULATION": 83, "COUNTYFIPS": "12033" }, "geometry": { "type": "Point", "coordinates": [ -87.235284340696722, 30.443446378531707 ] } },
{ "type": "Feature", "properties": { "OBJECTID": 269, "FACILITYID": "10006708", "NAME": "CAMP BARRETT", "SECURELVL": "JUVENILE", "CAPACITY": -999, "POPULATION": -999, "COUNTYFIPS": "06073" }, "geometry": { "type": "Point", "coordinates": [ -116.67550188540207, 32.71768292672423 ] } },
{ "type": "Feature", "properties": { "OBJECTID": 270, "FACILITYID": "10004780", "NAME": "VAN BUREN COUNTY JAIL", "SECURELVL": "NOT AVAILABLE", "CAPACITY": 13, "POPULATION": 50, "COUNTYFIPS": "47175" }, "geometry": { "type": "Point", "coordinates": [ -85.467187867344251, 35.748341976771783 ] } },
{ "type": "Feature", "properties": { "OBJECTID": 271, "FACILITYID": "10001525", "NAME": "SAN FRANCISCO COUNTY JAIL #2", "SECURELVL": "NOT AVAILABLE", "CAPACITY": 392, "POPULATION": 232, "COUNTYFIPS": "06075" }, "geometry": { "type": "Point", "coordinates": [ -122.40490521272433, 37.775251444800567 ] } },
{ "type": "Feature", "properties": { "OBJECTID": 272, "FACILITYID": "10005070", "NAME": "VALLEY COUNTY JUVENILE DETENTION CENTER", "SECURELVL": "JUVENILE", "CAPACITY": 8, "POPULATION": -999, "COUNTYFIPS": "16085" }, "geometry": { "type": "Point", "coordinates": [ -116.089562158895959, 44.897350468960568 ] } },
{ "type": "Feature", "properties": { "OBJECTID": 273, "FACILITYID": "10002536", "NAME": "OCONTO COUNTY JAIL", "SECURELVL": "MAXIMUM", "CAPACITY": 56, "POPULATION": 64, "COUNTYFIPS": "55083" }, "geometry": { "type": "Point", "coordinates": [ -87.865598138168423, 44.88953073744166 ] } },
{ "type": "Feature", "properties": { "OBJECTID": 274, "FACILITYID": "10006064", "NAME": "HOLT COUNTY JAIL", "SECURELVL": "NOT AVAILABLE", "CAPACITY": 20, "POPULATION": 8, "COUNTYFIPS": "31089" }, "geometry": { "type": "Point", "coordinates": [ -98.647302355910654, 42.459489168290588 ] } },
{ "type": "Feature", "properties": { "OBJECTID": 275, "FACILITYID": "10005483", "NAME": "JACKSON COUNTY JAIL", "SECURELVL": "NOT AVAILABLE", "CAPACITY": -999, "POPULATION": 130, "COUNTYFIPS": "40065" }, "geometry": { "type": "Point", "coordinates": [ -99.333123844211514, 34.632034970460296 ] } },
{ "type": "Feature", "properties": { "OBJECTID": 276, "FACILITYID": "10000374", "NAME": "TALLAHASSEE COMMUNITY RELEASE CENTER", "SECURELVL": "MINIMUM", "CAPACITY": -999, "POPULATION": 120, "COUNTYFIPS": "12073" }, "geometry": { "type": "Point", "coordinates": [ -84.306131830291164, 30.408400694189151 ] } },
{ "type": "Feature", "properties": { "OBJECTID": 277, "FACILITYID": "10004569", "NAME": "BRIDGES OF JACKSONVILLE", "SECURELVL": "MINIMUM", "CAPACITY": 140, "POPULATION": 136, "COUNTYFIPS": "12031" }, "geometry": { "type": "Point", "coordinates": [ -81.748272625878073, 30.330795202126382 ] } },
{ "type": "Feature", "properties": { "OBJECTID": 278, "FACILITYID": "10004567", "NAME": "BRIDGES OF LAKE CITY", "SECURELVL": "MINIMUM", "CAPACITY": 151, "POPULATION": 149, "COUNTYFIPS": "12023" }, "geometry": { "type": "Point", "coordinates": [ -82.654209935832711, 30.194897017706786 ] } },
{ "type": "Feature", "properties": { "OBJECTID": 279, "FACILITYID": "10000450", "NAME": "DAYTONA BEACH COMMUNITY RELEASE CENTER", "SECURELVL": "MINIMUM", "CAPACITY": -999, "POPULATION": 84, "COUNTYFIPS": "12127" }, "geometry": { "type": "Point", "coordinates": [ -81.126470752782524, 29.139281636808619 ] } },
{ "type": "Feature", "properties": { "OBJECTID": 280, "FACILITYID": "10006778", "NAME": "RAPIDES PARISH DETENTION CENTER II", "SECURELVL": "NOT AVAILABLE", "CAPACITY": 140, "POPULATION": 140, "COUNTYFIPS": "22079" }, "geometry": { "type": "Point", "coordinates": [ -92.522519733570505, 31.300774091339598 ] } },
{ "type": "Feature", "properties": { "OBJECTID": 281, "FACILITYID": "10005072", "NAME": "WASHINGTON COUNTY JAIL", "SECURELVL": "NOT AVAILABLE", "CAPACITY": -999, "POPULATION": 41, "COUNTYFIPS": "16087" }, "geometry": { "type": "Point", "coordinates": [ -116.965693053107927, 44.247484305124154 ] } },
{ "type": "Feature", "properties": { "OBJECTID": 282, "FACILITYID": "10003496", "NAME": "NORTHWEST CORRECTIONAL COMPLEX", "SECURELVL": "MEDIUM", "CAPACITY": 2436, "POPULATION": 2343, "COUNTYFIPS": "47095" }, "geometry": { "type": "Point", "coordinates": [ -89.454188386730337, 36.419321496994414 ] } },
{ "type": "Feature", "properties": { "OBJECTID": 283, "FACILITYID": "10001526", "NAME": "SAN FRANCISCO COUNTY JAIL #4", "SECURELVL": "MAXIMUM", "CAPACITY": 402, "POPULATION": 319, "COUNTYFIPS": "06075" }, "geometry": { "type": "Point", "coordinates": [ -122.404168187035751, 37.775461988981455 ] } },
{ "type": "Feature", "properties": { "OBJECTID": 284, "FACILITYID": "10001649", "NAME": "RAPIDS PARISH DETENTION CENTER III", "SECURELVL": "NOT AVAILABLE", "CAPACITY": 391, "POPULATION": 329, "COUNTYFIPS": "22079" }, "geometry": { "type": "Point", "coordinates": [ -92.521047201826363, 31.301325127078798 ] } },
{ "type": "Feature", "properties": { "OBJECTID": 285, "FACILITYID": "10004699", "NAME": "ADAMS COUNTY JAIL", "SECURELVL": "NOT AVAILABLE", "CAPACITY": 120, "POPULATION": 133, "COUNTYFIPS": "17001" }, "geometry": { "type": "Point", "coordinates": [ -91.407578849522707, 39.935062086035956 ] } },
{ "type": "Feature", "properties": { "OBJECTID": 286, "FACILITYID": "10005915", "NAME": "SABINE PARISH WOMEN'S JAIL", "SECURELVL": "NOT AVAILABLE", "CAPACITY": 29, "POPULATION": 25, "COUNTYFIPS": "22085" }, "geometry": { "type": "Point", "coordinates": [ -93.483835054048058, 31.56732163010674 ] } },
{ "type": "Feature", "properties": { "OBJECTID": 287, "FACILITYID": "10006330", "NAME": "TOMOKA CRC 285", "SECURELVL": "NOT AVAILABLE", "CAPACITY": -999, "POPULATION": 111, "COUNTYFIPS": "12127" }, "geometry": { "type": "Point", "coordinates": [ -81.150323997299807, 29.134371309743692 ] } },
{ "type": "Feature", "properties": { "OBJECTID": 288, "FACILITYID": "10000400", "NAME": "TTH OF DINSMORE", "SECURELVL": "MINIMUM", "CAPACITY": 150, "POPULATION": 145, "COUNTYFIPS": "12031" }, "geometry": { "type": "Point", "coordinates": [ -81.786569163141181, 30.474360879378885 ] } },
{ "type": "Feature", "properties": { "OBJECTID": 289, "FACILITYID": "10001454", "NAME": "BRIDGES OF COCOA", "SECURELVL": "MINIMUM", "CAPACITY": 84, "POPULATION": 82, "COUNTYFIPS": "12009" }, "geometry": { "type": "Point", "coordinates": [ -80.774556941745658, 28.446287424278953 ] } },
{ "type": "Feature", "properties": { "OBJECTID": 290, "FACILITYID": "10001711", "NAME": "WEST TENNESSEE STATE PENITENTIARY", "SECURELVL": "MAXIMUM", "CAPACITY": 2254, "POPULATION": 1908, "COUNTYFIPS": "47097" }, "geometry": { "type": "Point", "coordinates": [ -89.74688973351266, 35.670137399804858 ] } },
{ "type": "Feature", "properties": { "OBJECTID": 291, "FACILITYID": "10004639", "NAME": "BRIDGES OF POMPANO - TURNING POINT WORK RELEASE", "SECURELVL": "MINIMUM", "CAPACITY": 100, "POPULATION": 100, "COUNTYFIPS": "12011" }, "geometry": { "type": "Point", "coordinates": [ -80.130455333995513, 26.229294831401443 ] } },
{ "type": "Feature", "properties": { "OBJECTID": 292, "FACILITYID": "10004641", "NAME": "BROWARD COUNTY BRIDGE TC \/ CRC POMPANO", "SECURELVL": "MINIMUM", "CAPACITY": -999, "POPULATION": 0, "COUNTYFIPS": "12011" }, "geometry": { "type": "Point", "coordinates": [ -80.153999515377308, 26.196242994136846 ] } },
{ "type": "Feature", "properties": { "OBJECTID": 293, "FACILITYID": "10004606", "NAME": "KISSIMMEE COMMUNITY RELEASE CENTER", "SECURELVL": "MINIMUM", "CAPACITY": -999, "POPULATION": 155, "COUNTYFIPS": "12097" }, "geometry": { "type": "Point", "coordinates": [ -81.389002341852034, 28.335028692058977 ] } },
{ "type": "Feature", "properties": { "OBJECTID": 294, "FACILITYID": "10004650", "NAME": "OPA LOCKA COMMUNITY RELEASE CENTER", "SECURELVL": "MINIMUM", "CAPACITY": -999, "POPULATION": 148, "COUNTYFIPS": "12086" }, "geometry": { "type": "Point", "coordinates": [ -80.289297705275757, 25.897327305780198 ] } },
{ "type": "Feature", "properties": { "OBJECTID": 295, "FACILITYID": "10000461", "NAME": "ORLANDO COMMUNITY RELEASE CENTER", "SECURELVL": "MINIMUM", "CAPACITY": -999, "POPULATION": 82, "COUNTYFIPS": "12095" }, "geometry": { "type": "Point", "coordinates": [ -81.480745157007874, 28.569208166105373 ] } },
{ "type": "Feature", "properties": { "OBJECTID": 296, "FACILITYID": "10000805", "NAME": "SAN FRANCISCO COUNTY JAIL #5", "SECURELVL": "NOT AVAILABLE", "CAPACITY": 768, "POPULATION": 676, "COUNTYFIPS": "06081" }, "geometry": { "type": "Point", "coordinates": [ -122.460362564235467, 37.627440972986939 ] } },
{ "type": "Feature", "properties": { "OBJECTID": 297, "FACILITYID": "10006117", "NAME": "JEFFERSON COUNTY JAIL \/ SHERIFF", "SECURELVL": "NOT AVAILABLE", "CAPACITY": 18, "POPULATION": 9, "COUNTYFIPS": "31095" }, "geometry": { "type": "Point", "coordinates": [ -97.178047151678143, 40.133811278827075 ] } },
{ "type": "Feature", "properties": { "OBJECTID": 298, "FACILITYID": "10004698", "NAME": "ADAMS COUNTY JUVENILE DETENTION FACILITY", "SECURELVL": "JUVENILE", "CAPACITY": 30, "POPULATION": -999, "COUNTYFIPS": "17001" }, "geometry": { "type": "Point", "coordinates": [ -91.333449075331743, 39.931856948264326 ] } },
{ "type": "Feature", "properties": { "OBJECTID": 299, "FACILITYID": "10002527", "NAME": "ONEIDA COUNTY JAIL", "SECURELVL": "NOT AVAILABLE", "CAPACITY": 200, "POPULATION": 252, "COUNTYFIPS": "55085" }, "geometry": { "type": "Point", "coordinates": [ -89.378937032759282, 45.648495759180399 ] } },
{ "type": "Feature", "properties": { "OBJECTID": 300, "FACILITYID": "10001456", "NAME": "PINELLAS COMMUNITY RELEASE CENTER", "SECURELVL": "MINIMUM", "CAPACITY": -999, "POPULATION": 43, "COUNTYFIPS": "12103" }, "geometry": { "type": "Point", "coordinates": [ -82.70496169527388, 27.894566586719428 ] } },
{ "type": "Feature", "properties": { "OBJECTID": 301, "FACILITYID": "10003538", "NAME": "SOUTH CENTRAL CORRECTIONAL CENTER", "SECURELVL": "MEDIUM", "CAPACITY": 1700, "POPULATION": 1637, "COUNTYFIPS": "47181" }, "geometry": { "type": "Point", "coordinates": [ -87.997455110171501, 35.365724850465725 ] } },
{ "type": "Feature", "properties": { "OBJECTID": 302, "FACILITYID": "10005307", "NAME": "SAN FRANCISCO GENERAL HOSPITAL WARD 7D \/ 7L", "SECURELVL": "NOT AVAILABLE", "CAPACITY": 11, "POPULATION": -999, "COUNTYFIPS": "06075" }, "geometry": { "type": "Point", "coordinates": [ -122.404470051030671, 37.755758019760201 ] } },
{ "type": "Feature", "properties": { "OBJECTID": 303, "FACILITYID": "10000480", "NAME": "ST. PETERSBURG COMMUNITY RELEASE CENTER", "SECURELVL": "NOT AVAILABLE", "CAPACITY": -999, "POPULATION": 141, "COUNTYFIPS": "12103" }, "geometry": { "type": "Point", "coordinates": [ -82.690616411409337, 27.762226973702045 ] } },
{ "type": "Feature", "properties": { "OBJECTID": 304, "FACILITYID": "10004611", "NAME": "SUNCOAST COMMUNITY RELEASE CENTER", "SECURELVL": "MINIMUM", "CAPACITY": -999, "POPULATION": 159, "COUNTYFIPS": "12103" }, "geometry": { "type": "Point", "coordinates": [ -82.625401865210378, 27.865151453739827 ] } },
{ "type": "Feature", "properties": { "OBJECTID": 305, "FACILITYID": "10002178", "NAME": "TTH OF BARTOW", "SECURELVL": "MINIMUM", "CAPACITY": 79, "POPULATION": 70, "COUNTYFIPS": "12105" }, "geometry": { "type": "Point", "coordinates": [ -81.822076867206917, 27.902049457763287 ] } },
{ "type": "Feature", "properties": { "OBJECTID": 306, "FACILITYID": "10004665", "NAME": "BOONE COUNTY JAIL", "SECURELVL": "NOT AVAILABLE", "CAPACITY": 150, "POPULATION": -999, "COUNTYFIPS": "17007" }, "geometry": { "type": "Point", "coordinates": [ -88.844553023351025, 42.265636157723335 ] } },
{ "type": "Feature", "properties": { "OBJECTID": 307, "FACILITYID": "10004777", "NAME": "WARREN COUNTY JAIL", "SECURELVL": "NOT AVAILABLE", "CAPACITY": 251, "POPULATION": 332, "COUNTYFIPS": "47177" }, "geometry": { "type": "Point", "coordinates": [ -85.751599750977405, 35.696128423270757 ] } },
{ "type": "Feature", "properties": { "OBJECTID": 308, "FACILITYID": "10000798", "NAME": "SAN JOAQUIN COUNTY JAIL", "SECURELVL": "NOT AVAILABLE", "CAPACITY": -999, "POPULATION": 1031, "COUNTYFIPS": "06077" }, "geometry": { "type": "Point", "coordinates": [ -121.295149668207017, 37.885716292688166 ] } },
{ "type": "Feature", "properties": { "OBJECTID": 309, "FACILITYID": "10004112", "NAME": "ST. BERNARD PARISH PRISON", "SECURELVL": "NOT AVAILABLE", "CAPACITY": 250, "POPULATION": 227, "COUNTYFIPS": "22087" }, "geometry": { "type": "Point", "coordinates": [ -89.967498290784675, 29.935922196327301 ] } },
{ "type": "Feature", "properties": { "OBJECTID": 310, "FACILITYID": "10006573", "NAME": "NEXUS TREATMENT CENTER", "SECURELVL": "NOT AVAILABLE", "CAPACITY": 82, "POPULATION": 82, "COUNTYFIPS": "30027" }, "geometry": { "type": "Point", "coordinates": [ -109.454330704427591, 47.047617790709502 ] } },
{ "type": "Feature", "properties": { "OBJECTID": 311, "FACILITYID": "10001659", "NAME": "NELSON COLEMAN CORRECTIONAL CENTER", "SECURELVL": "NOT AVAILABLE", "CAPACITY": 600, "POPULATION": 550, "COUNTYFIPS": "22089" }, "geometry": { "type": "Point", "coordinates": [ -90.502564452159888, 29.992290235232158 ] } },
{ "type": "Feature", "properties": { "OBJECTID": 312, "FACILITYID": "10006324", "NAME": "TTH OF KISSIMMEE", "SECURELVL": "MINIMUM", "CAPACITY": 150, "POPULATION": 150, "COUNTYFIPS": "12097" }, "geometry": { "type": "Point", "coordinates": [ -81.395730417606401, 28.303382174081129 ] } },
{ "type": "Feature", "properties": { "OBJECTID": 313, "FACILITYID": "10004612", "NAME": "TTH OF TARPON SPRINGS", "SECURELVL": "MINIMUM", "CAPACITY": 84, "POPULATION": 83, "COUNTYFIPS": "12103" }, "geometry": { "type": "Point", "coordinates": [ -82.768602602011271, 28.167841603415663 ] } },
{ "type": "Feature", "properties": { "OBJECTID": 314, "FACILITYID": "10001459", "NAME": "WEST PALM BEACH COMMUNITY RELEASE CENTER", "SECURELVL": "MINIMUM", "CAPACITY": -999, "POPULATION": 147, "COUNTYFIPS": "12099" }, "geometry": { "type": "Point", "coordinates": [ -80.19293237860137, 26.683614290547137 ] } },
{ "type": "Feature", "properties": { "OBJECTID": 315, "FACILITYID": "10004652", "NAME": "BAY POINT SCHOOLS - MAIN CAMPUS", "SECURELVL": "JUVENILE", "CAPACITY": -999, "POPULATION": 0, "COUNTYFIPS": "12086" }, "geometry": { "type": "Point", "coordinates": [ -80.328950534437055, 25.561328185548224 ] } },
{ "type": "Feature", "properties": { "OBJECTID": 316, "FACILITYID": "10004653", "NAME": "BAY POINT SCHOOLS - NORTH CAMPUS", "SECURELVL": "JUVENILE", "CAPACITY": -999, "POPULATION": 0, "COUNTYFIPS": "12086" }, "geometry": { "type": "Point", "coordinates": [ -80.281583162077339, 25.96340948732966 ] } },
{ "type": "Feature", "properties": { "OBJECTID": 317, "FACILITYID": "10004676", "NAME": "BUREAU COUNTY JAIL", "SECURELVL": "NOT AVAILABLE", "CAPACITY": 36, "POPULATION": -999, "COUNTYFIPS": "17011" }, "geometry": { "type": "Point", "coordinates": [ -89.466028601391855, 41.367076368862051 ] } },
{ "type": "Feature", "properties": { "OBJECTID": 318, "FACILITYID": "10003625", "NAME": "RIVERSIDE RECOVERY & REENTRY PROGRAM", "SECURELVL": "NOT AVAILABLE", "CAPACITY": 22, "POPULATION": 31, "COUNTYFIPS": "30043" }, "geometry": { "type": "Point", "coordinates": [ -112.115932521641895, 46.226886797548573 ] } },
{ "type": "Feature", "properties": { "OBJECTID": 319, "FACILITYID": "10006572", "NAME": "ELKHORN TREATMENT CENTER", "SECURELVL": "NOT AVAILABLE", "CAPACITY": 42, "POPULATION": 40, "COUNTYFIPS": "30043" }, "geometry": { "type": "Point", "coordinates": [ -112.117688785369594, 46.225471930593663 ] } },
{ "type": "Feature", "properties": { "OBJECTID": 320, "FACILITYID": "10006664", "NAME": "TROUSDALE TURNER CORRECTIONAL CENTER", "SECURELVL": "MEDIUM", "CAPACITY": 2672, "POPULATION": 2481, "COUNTYFIPS": "47169" }, "geometry": { "type": "Point", "coordinates": [ -86.091601501205247, 36.351134043866466 ] } },
{ "type": "Feature", "properties": { "OBJECTID": 321, "FACILITYID": "10006088", "NAME": "KEITH COUNTY JAIL \/ SHERIFF", "SECURELVL": "MAXIMUM", "CAPACITY": 16, "POPULATION": 12, "COUNTYFIPS": "31101" }, "geometry": { "type": "Point", "coordinates": [ -101.719114304447203, 41.128814723485718 ] } },
{ "type": "Feature", "properties": { "OBJECTID": 322, "FACILITYID": "10000795", "NAME": "SAN JOAQUIN COUNTY JAIL (HONOR FARM)", "SECURELVL": "NOT AVAILABLE", "CAPACITY": -999, "POPULATION": 292, "COUNTYFIPS": "06077" },